[
  { "name": "Zelaya", "coord": { "lon": -58.86977, "lat": -34.370789 } },
  { "name": "Partido de Zárate", "coord": { "lon": -59.166672, "lat": -34 } },
  { "name": "Zárate", "coord": { "lon": -59.02858, "lat": -34.098141 } },
  { "name": "Zapiola", "coord": { "lon": -59.040981, "lat": -35.059021 } },
  {
    "name": "Yataity Calle",
    "coord": { "lon": -58.908459, "lat": -29.019131 }
  },
  { "name": "Yapeyú", "coord": { "lon": -56.818409, "lat": -29.469139 } },
  { "name": "Wilde", "coord": { "lon": -58.31287, "lat": -34.694672 } },
  { "name": "Vivoratá", "coord": { "lon": -57.666328, "lat": -37.663872 } },
  {
    "name": "Villa Zorraquín",
    "coord": { "lon": -58.01384, "lat": -31.322359 }
  },
  { "name": "Villa Zagala", "coord": { "lon": -58.537682, "lat": -34.551262 } },
  { "name": "Villa Svea", "coord": { "lon": -55.146332, "lat": -27.48617 } },
  {
    "name": "Villa Sarmiento",
    "coord": { "lon": -58.38319, "lat": -34.701248 }
  },
  {
    "name": "Villa San Marcial",
    "coord": { "lon": -58.933331, "lat": -32.166672 }
  },
  {
    "name": "Villa San Francisco",
    "coord": { "lon": -58.203659, "lat": -34.772331 }
  },
  { "name": "Villars", "coord": { "lon": -58.940842, "lat": -34.826351 } },
  { "name": "Villa Rosa", "coord": { "lon": -58.871159, "lat": -34.416569 } },
  {
    "name": "Villa Residencial Laguna Brava",
    "coord": { "lon": -57.983501, "lat": -37.85965 }
  },
  {
    "name": "Villa Reichembach",
    "coord": { "lon": -58.69997, "lat": -34.6558 }
  },
  {
    "name": "Villa Recondo",
    "coord": { "lon": -58.476101, "lat": -34.705761 }
  },
  {
    "name": "Villa Paranacito",
    "coord": { "lon": -58.657982, "lat": -33.72208 }
  },
  { "name": "Villa Ortúzar", "coord": { "lon": -58.48333, "lat": -34.583328 } },
  { "name": "Villa Ocampo", "coord": { "lon": -59.355148, "lat": -28.48752 } },
  {
    "name": "Villa Martínez de Hoz",
    "coord": { "lon": -58.575951, "lat": -34.62307 }
  },
  {
    "name": "Villa María Grande",
    "coord": { "lon": -59.901821, "lat": -31.665649 }
  },
  { "name": "Villa Mantero", "coord": { "lon": -58.74596, "lat": -32.39727 } },
  {
    "name": "Villa Luzuriaga",
    "coord": { "lon": -58.582191, "lat": -34.656818 }
  },
  { "name": "Villa Luro", "coord": { "lon": -58.502731, "lat": -34.638142 } },
  { "name": "Villa Libertad", "coord": { "lon": -58.567268, "lat": -34.5835 } },
  { "name": "Villa León", "coord": { "lon": -58.702599, "lat": -34.631969 } },
  { "name": "Villa Leloir", "coord": { "lon": -58.678341, "lat": -34.612179 } },
  {
    "name": "Villa Insuperable",
    "coord": { "lon": -58.511051, "lat": -34.67083 }
  },
  {
    "name": "Villa Hernandarias",
    "coord": { "lon": -59.985001, "lat": -31.23101 }
  },
  {
    "name": "Villa Guillermina",
    "coord": { "lon": -59.454441, "lat": -28.24258 }
  },
  {
    "name": "Departamento de Villaguay",
    "coord": { "lon": -59, "lat": -31.58333 }
  },
  { "name": "Villaguay", "coord": { "lon": -59.02689, "lat": -31.865299 } },
  {
    "name": "Villa Giambruno",
    "coord": { "lon": -58.209499, "lat": -34.80336 }
  },
  { "name": "Villa Gesell", "coord": { "lon": -56.973042, "lat": -37.263939 } },
  {
    "name": "Villa Galicia",
    "coord": { "lon": -58.379829, "lat": -34.762249 }
  },
  {
    "name": "Villa Escolar",
    "coord": { "lon": -58.671341, "lat": -26.622089 }
  },
  { "name": "Villa Elisa", "coord": { "lon": -58.400822, "lat": -32.1632 } },
  {
    "name": "Villa El Cacique",
    "coord": { "lon": -59.395691, "lat": -37.676159 }
  },
  {
    "name": "Villa D. Sobral",
    "coord": { "lon": -58.245441, "lat": -34.758499 }
  },
  {
    "name": "Villa Domínico",
    "coord": { "lon": -58.31963, "lat": -34.689529 }
  },
  { "name": "Villa Dolores", "coord": { "lon": -55.91, "lat": -27.40704 } },
  {
    "name": "Villa Diamante",
    "coord": { "lon": -58.43298, "lat": -34.681889 }
  },
  { "name": "Villa Devoto", "coord": { "lon": -58.51231, "lat": -34.600639 } },
  { "name": "Villa de Mayo", "coord": { "lon": -58.67952, "lat": -34.504719 } },
  {
    "name": "Villa del Rosario",
    "coord": { "lon": -57.912571, "lat": -30.79567 }
  },
  {
    "name": "Villa del Parque",
    "coord": { "lon": -58.48872, "lat": -34.600571 }
  },
  {
    "name": "Villa de los Patricios",
    "coord": { "lon": -58.537331, "lat": -34.61969 }
  },
  { "name": "Villa Crespo", "coord": { "lon": -58.44735, "lat": -34.60001 } },
  { "name": "Villa Basso", "coord": { "lon": -58.591759, "lat": -34.63377 } },
  {
    "name": "Villa Barilari",
    "coord": { "lon": -58.331501, "lat": -34.702759 }
  },
  { "name": "Villa Ansaldi", "coord": { "lon": -58.51445, "lat": -34.6796 } },
  { "name": "Villa Altube", "coord": { "lon": -58.746559, "lat": -34.52647 } },
  {
    "name": "Villa Alianza",
    "coord": { "lon": -58.550468, "lat": -34.612598 }
  },
  { "name": "Villa Adelina", "coord": { "lon": -58.5476, "lat": -34.529751 } },
  { "name": "Victoria", "coord": { "lon": -58.546139, "lat": -34.455051 } },
  {
    "name": "Partido de Vicente López",
    "coord": { "lon": -58.474388, "lat": -34.523529 }
  },
  {
    "name": "Vicente López",
    "coord": { "lon": -58.473701, "lat": -34.529469 }
  },
  { "name": "Versailles", "coord": { "lon": -58.515041, "lat": -34.627491 } },
  { "name": "Verónica", "coord": { "lon": -57.33691, "lat": -35.387959 } },
  {
    "name": "Vélez Sarsfield",
    "coord": { "lon": -58.48333, "lat": -34.633331 }
  },
  {
    "name": "Departamento de Veinticinco de Mayo",
    "coord": { "lon": -54.666672, "lat": -27.41667 }
  },
  {
    "name": "Veinticinco de Mayo",
    "coord": { "lon": -54.743118, "lat": -27.376789 }
  },
  {
    "name": "Valeria del Mar",
    "coord": { "lon": -56.890461, "lat": -37.146042 }
  },
  { "name": "Vagues", "coord": { "lon": -59.462521, "lat": -34.29932 } },
  { "name": "Urdinarrain", "coord": { "lon": -58.893242, "lat": -32.68573 } },
  { "name": "Ubajay", "coord": { "lon": -58.313499, "lat": -31.793579 } },
  { "name": "Turdera", "coord": { "lon": -58.402771, "lat": -34.790451 } },
  { "name": "Tres Capones", "coord": { "lon": -55.60471, "lat": -28.006411 } },
  { "name": "Tres Bocas", "coord": { "lon": -59.766441, "lat": -32.739891 } },
  { "name": "Tortuguitas", "coord": { "lon": -58.759171, "lat": -34.469681 } },
  {
    "name": "Partido de Tigre",
    "coord": { "lon": -58.58279, "lat": -34.420582 }
  },
  { "name": "Tigre", "coord": { "lon": -58.57962, "lat": -34.426029 } },
  { "name": "Tapiales", "coord": { "lon": -58.508492, "lat": -34.699909 } },
  {
    "name": "Partido de Tandil",
    "coord": { "lon": -59.25, "lat": -37.333328 }
  },
  { "name": "Tandil", "coord": { "lon": -59.13316, "lat": -37.321671 } },
  { "name": "Tamangueyú", "coord": { "lon": -58.740608, "lat": -38.204819 } },
  { "name": "Tacuarendí", "coord": { "lon": -59.30212, "lat": -28.417789 } },
  { "name": "Tabossi", "coord": { "lon": -59.934769, "lat": -31.80135 } },
  { "name": "Partido de Suipacha", "coord": { "lon": -59.75, "lat": -34.75 } },
  { "name": "Suipacha", "coord": { "lon": -59.689579, "lat": -34.770039 } },
  { "name": "Sosa", "coord": { "lon": -59.910809, "lat": -31.73657 } },
  { "name": "Solís", "coord": { "lon": -59.324879, "lat": -34.297569 } },
  { "name": "Siete Palmas", "coord": { "lon": -58.332191, "lat": -25.20228 } },
  {
    "name": "Sierra de los Padres",
    "coord": { "lon": -57.77161, "lat": -37.95269 }
  },
  { "name": "Sauce de Luna", "coord": { "lon": -59.218719, "lat": -31.23794 } },
  {
    "name": "Departamento de Sauce",
    "coord": { "lon": -58.666672, "lat": -30 }
  },
  { "name": "Sauce", "coord": { "lon": -58.787769, "lat": -30.08671 } },
  { "name": "Sarandí", "coord": { "lon": -58.351181, "lat": -34.683239 } },
  {
    "name": "Partido de San Vicente",
    "coord": { "lon": -58.5, "lat": -35.083328 }
  },
  { "name": "San Vicente", "coord": { "lon": -58.42276, "lat": -35.025002 } },
  { "name": "San Vicente", "coord": { "lon": -54.133331, "lat": -26.616671 } },
  { "name": "Santo Tomé", "coord": { "lon": -56.040771, "lat": -28.549391 } },
  {
    "name": "Santos Lugares",
    "coord": { "lon": -58.545921, "lat": -34.600159 }
  },
  { "name": "Santo Pipó", "coord": { "lon": -55.408669, "lat": -27.141319 } },
  { "name": "San Telmo", "coord": { "lon": -58.37122, "lat": -34.619999 } },
  {
    "name": "Santa Teresita",
    "coord": { "lon": -56.70105, "lat": -36.541309 }
  },
  { "name": "Santa Rosa", "coord": { "lon": -58.118912, "lat": -28.26318 } },
  { "name": "Santa María", "coord": { "lon": -55.38541, "lat": -27.903561 } },
  { "name": "Santa Lucía", "coord": { "lon": -59.102871, "lat": -28.987459 } },
  { "name": "Santa Elena", "coord": { "lon": -59.786961, "lat": -30.94768 } },
  { "name": "Santa Anita", "coord": { "lon": -58.786221, "lat": -32.174759 } },
  { "name": "Santa Ana", "coord": { "lon": -57.931622, "lat": -30.90004 } },
  { "name": "San Salvador", "coord": { "lon": -58.505241, "lat": -31.62487 } },
  { "name": "Partido de San Pedro", "coord": { "lon": -59.75, "lat": -33.75 } },
  {
    "name": "Departamento de San Pedro",
    "coord": { "lon": -54, "lat": -26.66667 }
  },
  { "name": "San Pedro", "coord": { "lon": -59.666641, "lat": -33.679131 } },
  { "name": "San Pedro", "coord": { "lon": -54.108421, "lat": -26.62207 } },
  {
    "name": "San Miguel del Monte",
    "coord": { "lon": -58.806751, "lat": -35.439621 }
  },
  {
    "name": "Departamento de San Miguel",
    "coord": { "lon": -57.5, "lat": -27.91667 }
  },
  { "name": "San Miguel", "coord": { "lon": -57.589642, "lat": -27.99585 } },
  {
    "name": "San Luis del Palmar",
    "coord": { "lon": -58.554539, "lat": -27.5079 }
  },
  { "name": "San Lorenzo", "coord": { "lon": -58.76733, "lat": -28.13306 } },
  { "name": "San Justo", "coord": { "lon": -58.560581, "lat": -34.676601 } },
  { "name": "San Justo", "coord": { "lon": -58.435692, "lat": -32.446541 } },
  {
    "name": "San José de Feliciano",
    "coord": { "lon": -58.751671, "lat": -30.38452 }
  },
  { "name": "San José", "coord": { "lon": -55.7826, "lat": -27.769791 } },
  {
    "name": "Departamento de San Javier",
    "coord": { "lon": -59.916672, "lat": -30.33333 }
  },
  { "name": "San Javier", "coord": { "lon": -59.931702, "lat": -30.57781 } },
  {
    "name": "Partido de San Isidro",
    "coord": { "lon": -58.583328, "lat": -34.5 }
  },
  {
    "name": "Departamento de San Ignacio",
    "coord": { "lon": -55.333328, "lat": -27.25 }
  },
  { "name": "San Ignacio", "coord": { "lon": -55.533901, "lat": -27.255859 } },
  { "name": "San Gustavo", "coord": { "lon": -59.398399, "lat": -30.68961 } },
  {
    "name": "San Francisco Solano",
    "coord": { "lon": -58.316669, "lat": -34.783329 }
  },
  {
    "name": "San Francisco de Laishí",
    "coord": { "lon": -58.63039, "lat": -26.24262 }
  },
  {
    "name": "Partido de San Fernando",
    "coord": { "lon": -58.542019, "lat": -34.445419 }
  },
  { "name": "San Fernando", "coord": { "lon": -58.56279, "lat": -34.44104 } },
  {
    "name": "Departamento de San Cosme",
    "coord": { "lon": -58.5, "lat": -27.33333 }
  },
  { "name": "San Cosme", "coord": { "lon": -58.512138, "lat": -27.371229 } },
  {
    "name": "San Clemente del Tuyú",
    "coord": { "lon": -56.723511, "lat": -36.356941 }
  },
  {
    "name": "Partido de San Cayetano",
    "coord": { "lon": -59.666672, "lat": -38.416672 }
  },
  { "name": "San Cayetano", "coord": { "lon": -59.609539, "lat": -38.346531 } },
  { "name": "San Carlos", "coord": { "lon": -55.897301, "lat": -27.745859 } },
  {
    "name": "San Antonio de Padua",
    "coord": { "lon": -58.707691, "lat": -34.664459 }
  },
  { "name": "San Antonio de Areco", "coord": { "lon": -59.5, "lat": -34.25 } },
  {
    "name": "San Antonio de Areco",
    "coord": { "lon": -59.469452, "lat": -34.24968 }
  },
  {
    "name": "Partido de San Andrés de Giles",
    "coord": { "lon": -59.5, "lat": -34.5 }
  },
  {
    "name": "San Andrés de Giles",
    "coord": { "lon": -59.443329, "lat": -34.449718 }
  },
  { "name": "San Andrés", "coord": { "lon": -58.545292, "lat": -34.563091 } },
  { "name": "San Alberto", "coord": { "lon": -54.98333, "lat": -26.799999 } },
  {
    "name": "Partido de Saladillo",
    "coord": { "lon": -59.666672, "lat": -35.75 }
  },
  { "name": "Saladillo", "coord": { "lon": -59.777882, "lat": -35.637081 } },
  {
    "name": "Departamento de Saladas",
    "coord": { "lon": -58.75, "lat": -28.25 }
  },
  { "name": "Saladas", "coord": { "lon": -58.625912, "lat": -28.253839 } },
  { "name": "Sáenz Peña", "coord": { "lon": -58.530079, "lat": -34.600521 } },
  {
    "name": "Ruiz de Montoya",
    "coord": { "lon": -55.049999, "lat": -26.98333 }
  },
  {
    "name": "Rosario del Tala",
    "coord": { "lon": -59.145451, "lat": -32.30286 }
  },
  {
    "name": "Partido de Roque Pérez",
    "coord": { "lon": -59.416672, "lat": -35.5 }
  },
  { "name": "Roque Pérez", "coord": { "lon": -59.33271, "lat": -35.397942 } },
  { "name": "Romang", "coord": { "lon": -59.748058, "lat": -29.501619 } },
  { "name": "Río Luján", "coord": { "lon": -58.92028, "lat": -34.285561 } },
  { "name": "Ringuelet", "coord": { "lon": -57.988049, "lat": -34.889359 } },
  { "name": "Riachuelo", "coord": { "lon": -58.739449, "lat": -27.577539 } },
  { "name": "Riacho Eh-Eh", "coord": { "lon": -58.2775, "lat": -25.362089 } },
  { "name": "Retiro", "coord": { "lon": -58.383331, "lat": -34.583328 } },
  { "name": "Resistencia", "coord": { "lon": -58.983891, "lat": -27.46056 } },
  {
    "name": "Remedios de Escalada",
    "coord": { "lon": -58.382549, "lat": -34.724918 }
  },
  { "name": "Reconquista", "coord": { "lon": -59.650002, "lat": -29.15 } },
  {
    "name": "Partido de Rauch",
    "coord": { "lon": -58.833328, "lat": -36.583328 }
  },
  { "name": "Rauch", "coord": { "lon": -59.089729, "lat": -36.774502 } },
  { "name": "Ramos Otero", "coord": { "lon": -58.339401, "lat": -37.534382 } },
  {
    "name": "Rafael Castillo",
    "coord": { "lon": -58.62706, "lat": -34.69857 }
  },
  {
    "name": "Rafael Calzada",
    "coord": { "lon": -58.354019, "lat": -34.791908 }
  },
  { "name": "Partido de Quilmes", "coord": { "lon": -58.25, "lat": -34.75 } },
  { "name": "Quilmes", "coord": { "lon": -58.252651, "lat": -34.724178 } },
  { "name": "Quequén", "coord": { "lon": -58.7155, "lat": -38.53532 } },
  { "name": "Punta Lara", "coord": { "lon": -57.98455, "lat": -34.80954 } },
  { "name": "Villa Pueyrredón", "coord": { "lon": -58.5, "lat": -34.583328 } },
  { "name": "Puerto Yeruá", "coord": { "lon": -58.01527, "lat": -31.53713 } },
  { "name": "Puerto Wanda", "coord": { "lon": -54.599411, "lat": -25.963739 } },
  {
    "name": "Puerto Vilelas",
    "coord": { "lon": -58.93906, "lat": -27.514139 }
  },
  { "name": "Puerto Tirol", "coord": { "lon": -59.082062, "lat": -27.372181 } },
  { "name": "Puerto Ruiz", "coord": { "lon": -59.36404, "lat": -33.221218 } },
  { "name": "Puerto Rico", "coord": { "lon": -55.024021, "lat": -26.79598 } },
  {
    "name": "Puerto Reconquista",
    "coord": { "lon": -59.586418, "lat": -29.235241 }
  },
  { "name": "Puerto Piray", "coord": { "lon": -54.71476, "lat": -26.467791 } },
  {
    "name": "Puerto Pilcomayo",
    "coord": { "lon": -57.652279, "lat": -25.36871 }
  },
  { "name": "Puerto Paulito", "coord": { "lon": -54.59853, "lat": -25.80266 } },
  {
    "name": "Puerto Libertad",
    "coord": { "lon": -54.620892, "lat": -25.91641 }
  },
  { "name": "Puerto Leoni", "coord": { "lon": -55.165699, "lat": -26.96069 } },
  {
    "name": "Puerto Iguazú",
    "coord": { "lon": -54.573551, "lat": -25.599119 }
  },
  { "name": "Puerto Ibicuy", "coord": { "lon": -59.183331, "lat": -33.73333 } },
  {
    "name": "Puerto Esperanza",
    "coord": { "lon": -54.673061, "lat": -26.015169 }
  },
  {
    "name": "Puerto Eldorado",
    "coord": { "lon": -54.69463, "lat": -26.408421 }
  },
  { "name": "Puerto Canoas", "coord": { "lon": -54.428051, "lat": -25.70392 } },
  {
    "name": "Puerto Bermejo",
    "coord": { "lon": -58.505379, "lat": -26.93173 }
  },
  {
    "name": "Puerto Algarrobo",
    "coord": { "lon": -59.57972, "lat": -30.642139 }
  },
  {
    "name": "Puente Cascallares",
    "coord": { "lon": -58.819618, "lat": -34.686218 }
  },
  {
    "name": "Pueblo Libertador",
    "coord": { "lon": -59.389809, "lat": -30.220869 }
  },
  {
    "name": "Pronunciamiento",
    "coord": { "lon": -58.432869, "lat": -32.346169 }
  },
  {
    "name": "Presidente Rivadavia",
    "coord": { "lon": -58.433331, "lat": -34.650002 }
  },
  {
    "name": "Presidencia Roca",
    "coord": { "lon": -59.595409, "lat": -26.1409 }
  },
  {
    "name": "Departamento de Presidencia de la Plaza",
    "coord": { "lon": -59.75, "lat": -27 }
  },
  {
    "name": "Presidencia de la Plaza",
    "coord": { "lon": -59.84243, "lat": -27.001471 }
  },
  { "name": "Posadas", "coord": { "lon": -55.89608, "lat": -27.367081 } },
  { "name": "Pontevedra", "coord": { "lon": -58.686958, "lat": -34.749741 } },
  { "name": "Plátanos", "coord": { "lon": -58.161049, "lat": -34.784012 } },
  {
    "name": "Departamento de Pirané",
    "coord": { "lon": -59.166672, "lat": -25.66667 }
  },
  { "name": "Pirané", "coord": { "lon": -59.108791, "lat": -25.732389 } },
  { "name": "Piñero", "coord": { "lon": -58.75, "lat": -34.533329 } },
  { "name": "Pinamar", "coord": { "lon": -56.861401, "lat": -37.107941 } },
  {
    "name": "Piedras Blancas",
    "coord": { "lon": -59.959572, "lat": -31.18623 }
  },
  {
    "name": "Picada Gobernador López",
    "coord": { "lon": -55.24585, "lat": -27.670691 }
  },
  { "name": "Perugorría", "coord": { "lon": -58.610592, "lat": -29.34132 } },
  {
    "name": "Pedro R. Fernández",
    "coord": { "lon": -58.65583, "lat": -28.750971 }
  },
  { "name": "Pedernales", "coord": { "lon": -59.648998, "lat": -35.227711 } },
  { "name": "Paternal", "coord": { "lon": -58.471561, "lat": -34.595421 } },
  { "name": "Paso del Rey", "coord": { "lon": -58.75898, "lat": -34.656219 } },
  {
    "name": "Departamento de Paso de los Libres",
    "coord": { "lon": -57.25, "lat": -29.66667 }
  },
  {
    "name": "Paso de los Libres",
    "coord": { "lon": -57.089909, "lat": -29.71311 }
  },
  {
    "name": "Paso de la Patria",
    "coord": { "lon": -58.571972, "lat": -27.316759 }
  },
  {
    "name": "Paso de la Laguna",
    "coord": { "lon": -59.166672, "lat": -31.799999 }
  },
  {
    "name": "Parque Patricios",
    "coord": { "lon": -58.410488, "lat": -34.640518 }
  },
  {
    "name": "Parque Chacabuco",
    "coord": { "lon": -58.443218, "lat": -34.634129 }
  },
  { "name": "Parada Leis", "coord": { "lon": -55.840698, "lat": -27.601021 } },
  { "name": "Panambí", "coord": { "lon": -54.915138, "lat": -27.7237 } },
  {
    "name": "Pampa del Indio",
    "coord": { "lon": -59.91898, "lat": -26.06468 }
  },
  {
    "name": "Pampa Almirón",
    "coord": { "lon": -59.133331, "lat": -26.700001 }
  },
  { "name": "Palo Santo", "coord": { "lon": -59.337811, "lat": -25.56332 } },
  { "name": "Palmar Grande", "coord": { "lon": -57.90057, "lat": -27.94195 } },
  { "name": "Palermo", "coord": { "lon": -58.430531, "lat": -34.588558 } },
  { "name": "Palavecino", "coord": { "lon": -58.640598, "lat": -32.946079 } },
  { "name": "Ostende", "coord": { "lon": -56.883518, "lat": -37.125221 } },
  { "name": "Open Door", "coord": { "lon": -59.07719, "lat": -34.492359 } },
  { "name": "Ombucito", "coord": { "lon": -57.11924, "lat": -29.66555 } },
  { "name": "Olivos", "coord": { "lon": -58.487019, "lat": -34.507469 } },
  {
    "name": "Departamento de Oberá",
    "coord": { "lon": -55.083328, "lat": -27.549999 }
  },
  { "name": "Oberá", "coord": { "lon": -55.119942, "lat": -27.487061 } },
  { "name": "Nueve de Julio", "coord": { "lon": -58.8265, "lat": -28.840509 } },
  {
    "name": "Nuestra Señora del Rosario de Caa Catí",
    "coord": { "lon": -57.620731, "lat": -27.750719 }
  },
  {
    "name": "Norberto de la Riestra",
    "coord": { "lon": -59.77169, "lat": -35.273281 }
  },
  { "name": "Necochea", "coord": { "lon": -58.736752, "lat": -38.54726 } },
  { "name": "Partido de Navarro", "coord": { "lon": -59.5, "lat": -35 } },
  { "name": "Navarro", "coord": { "lon": -59.276989, "lat": -35.005589 } },
  { "name": "Napaleofú", "coord": { "lon": -58.743649, "lat": -37.62468 } },
  { "name": "Muñiz", "coord": { "lon": -58.698399, "lat": -34.546749 } },
  {
    "name": "Partido de Morón",
    "coord": { "lon": -58.621941, "lat": -34.65139 }
  },
  { "name": "Morón", "coord": { "lon": -58.619751, "lat": -34.653439 } },
  {
    "name": "Partido de Moreno",
    "coord": { "lon": -58.790588, "lat": -34.634899 }
  },
  { "name": "Moquehuá", "coord": { "lon": -59.775051, "lat": -35.091801 } },
  { "name": "Monte Castro", "coord": { "lon": -58.5, "lat": -34.616669 } },
  {
    "name": "Departamento de Monte Caseros",
    "coord": { "lon": -57.833328, "lat": -30.25 }
  },
  { "name": "Monte Caseros", "coord": { "lon": -57.636261, "lat": -30.25359 } },
  {
    "name": "Departamento de Montecarlo",
    "coord": { "lon": -54.583328, "lat": -26.716669 }
  },
  { "name": "Montecarlo", "coord": { "lon": -54.757, "lat": -26.5662 } },
  { "name": "Mojón Grande", "coord": { "lon": -55.156311, "lat": -27.711639 } },
  {
    "name": "Mojones Norte",
    "coord": { "lon": -59.201801, "lat": -31.509741 }
  },
  { "name": "Mocoretá", "coord": { "lon": -57.96344, "lat": -30.61891 } },
  { "name": "Misiones Province", "coord": { "lon": -55, "lat": -27 } },
  { "name": "Miramar", "coord": { "lon": -57.836689, "lat": -38.268761 } },
  {
    "name": "Ministro Rivadavia",
    "coord": { "lon": -58.366192, "lat": -34.841042 }
  },
  {
    "name": "Partido de Mercedes",
    "coord": { "lon": -59.416672, "lat": -34.666672 }
  },
  { "name": "Mercedes", "coord": { "lon": -59.430679, "lat": -34.651459 } },
  { "name": "Mercedes", "coord": { "lon": -58.078949, "lat": -29.18186 } },
  { "name": "Mechongué", "coord": { "lon": -58.224319, "lat": -38.14785 } },
  {
    "name": "Departamento de Mburucuyá",
    "coord": { "lon": -58.25, "lat": -28 }
  },
  { "name": "Mburucuyá", "coord": { "lon": -58.224491, "lat": -28.045389 } },
  { "name": "Máximo Paz", "coord": { "lon": -58.617882, "lat": -34.938782 } },
  { "name": "Matheu", "coord": { "lon": -58.83292, "lat": -34.385448 } },
  { "name": "Mataderos", "coord": { "lon": -58.5, "lat": -34.666672 } },
  { "name": "Mártires", "coord": { "lon": -55.383331, "lat": -27.433331 } },
  { "name": "Martínez", "coord": { "lon": -58.516788, "lat": -34.493969 } },
  {
    "name": "Mariano Moreno",
    "coord": { "lon": -58.929169, "lat": -34.463329 }
  },
  {
    "name": "Mariano I. Loza",
    "coord": { "lon": -58.194359, "lat": -29.37668 }
  },
  {
    "name": "Mariano Acosta",
    "coord": { "lon": -58.793091, "lat": -34.719872 }
  },
  {
    "name": "Margarita Belén",
    "coord": { "lon": -58.972191, "lat": -27.2616 }
  },
  { "name": "Mar del Sur", "coord": { "lon": -57.990799, "lat": -38.34288 } },
  {
    "name": "Mar del Plata",
    "coord": { "lon": -57.557541, "lat": -38.002281 }
  },
  {
    "name": "Partido de Marcos Paz",
    "coord": { "lon": -58.833328, "lat": -34.833328 }
  },
  { "name": "Marcos Paz", "coord": { "lon": -58.837399, "lat": -34.780628 } },
  { "name": "Manzone", "coord": { "lon": -58.868252, "lat": -34.484619 } },
  { "name": "Malabrigo", "coord": { "lon": -59.96957, "lat": -29.346359 } },
  { "name": "Makallé", "coord": { "lon": -59.286961, "lat": -27.206869 } },
  { "name": "Maipú", "coord": { "lon": -57.880939, "lat": -36.86274 } },
  { "name": "Partido de Magdalena", "coord": { "lon": -57.5, "lat": -35.25 } },
  { "name": "Magdalena", "coord": { "lon": -57.513008, "lat": -35.08065 } },
  { "name": "Maciá", "coord": { "lon": -59.399471, "lat": -32.172199 } },
  { "name": "Lynch", "coord": { "lon": -58.524929, "lat": -34.59256 } },
  {
    "name": "Partido de Luján",
    "coord": { "lon": -59.166672, "lat": -34.583328 }
  },
  { "name": "Luján", "coord": { "lon": -59.105, "lat": -34.570278 } },
  {
    "name": "Luis J. García",
    "coord": { "lon": -58.466671, "lat": -34.683331 }
  },
  { "name": "Luis Guillón", "coord": { "lon": -58.449471, "lat": -34.79882 } },
  { "name": "Lucas Sur", "coord": { "lon": -59.036709, "lat": -31.6551 } },
  { "name": "Lucas González", "coord": { "lon": -59.530128, "lat": -32.3843 } },
  { "name": "Los Helechos", "coord": { "lon": -55.076832, "lat": -27.5576 } },
  {
    "name": "Los Conquistadores",
    "coord": { "lon": -58.467731, "lat": -30.590799 }
  },
  { "name": "Los Charrúas", "coord": { "lon": -58.18774, "lat": -31.17548 } },
  { "name": "Los Cardales", "coord": { "lon": -58.984322, "lat": -34.32814 } },
  {
    "name": "Los Acantilados",
    "coord": { "lon": -57.600189, "lat": -38.116051 }
  },
  { "name": "Loreto", "coord": { "lon": -57.275311, "lat": -27.768339 } },
  { "name": "Loreto", "coord": { "lon": -55.522251, "lat": -27.336349 } },
  { "name": "Longchamps", "coord": { "lon": -58.385471, "lat": -34.856758 } },
  { "name": "Loma Verde", "coord": { "lon": -58.403782, "lat": -35.273682 } },
  {
    "name": "Partido de Lomas de Zamora",
    "coord": { "lon": -58.416672, "lat": -34.75 }
  },
  {
    "name": "Lomas de Zamora",
    "coord": { "lon": -58.406319, "lat": -34.76088 }
  },
  {
    "name": "Lomas de Vallejos",
    "coord": { "lon": -57.918499, "lat": -27.73501 }
  },
  { "name": "Partido de Lobos", "coord": { "lon": -59.166672, "lat": -35.25 } },
  { "name": "Lobos", "coord": { "lon": -59.089748, "lat": -35.182861 } },
  {
    "name": "Partido de Lobería",
    "coord": { "lon": -58.75, "lat": -38.083328 }
  },
  { "name": "Lobería", "coord": { "lon": -58.791302, "lat": -38.155739 } },
  { "name": "Llavallol", "coord": { "lon": -58.43092, "lat": -34.789558 } },
  { "name": "Liniers", "coord": { "lon": -58.523861, "lat": -34.64286 } },
  { "name": "Libertad", "coord": { "lon": -58.680099, "lat": -34.688911 } },
  { "name": "Libertad", "coord": { "lon": -57.820202, "lat": -30.042999 } },
  { "name": "La Verde", "coord": { "lon": -59.37352, "lat": -27.126341 } },
  { "name": "Las Toscas", "coord": { "lon": -59.25795, "lat": -28.3529 } },
  { "name": "Las Toninas", "coord": { "lon": -56.700001, "lat": -36.48333 } },
  { "name": "Las Garzas", "coord": { "lon": -59.51667, "lat": -28.83333 } },
  { "name": "Las Garcitas", "coord": { "lon": -59.799999, "lat": -26.58333 } },
  { "name": "Larroque", "coord": { "lon": -59.001251, "lat": -33.03595 } },
  { "name": "Partido de La Plata", "coord": { "lon": -58, "lat": -35 } },
  { "name": "La Plata", "coord": { "lon": -57.954529, "lat": -34.921452 } },
  {
    "name": "Departamento de La Paz",
    "coord": { "lon": -59.416672, "lat": -30.83333 }
  },
  { "name": "La Paz", "coord": { "lon": -59.64566, "lat": -30.74485 } },
  { "name": "Lapachito", "coord": { "lon": -59.38604, "lat": -27.159981 } },
  { "name": "Lanteri", "coord": { "lon": -59.63681, "lat": -28.84141 } },
  { "name": "La Leonesa", "coord": { "lon": -58.703468, "lat": -27.037861 } },
  {
    "name": "Laguna Naick-Neck",
    "coord": { "lon": -58.09383, "lat": -25.24769 }
  },
  {
    "name": "Laguna Limpia",
    "coord": { "lon": -59.680828, "lat": -26.495649 }
  },
  { "name": "Laguna Brava", "coord": { "lon": -58.716839, "lat": -27.49567 } },
  { "name": "Laferrere", "coord": { "lon": -58.58791, "lat": -34.748299 } },
  { "name": "La Estafeta", "coord": { "lon": -57.640072, "lat": -38.162361 } },
  { "name": "La Escondida", "coord": { "lon": -59.447842, "lat": -27.107241 } },
  { "name": "La Eduvigis", "coord": { "lon": -59.06842, "lat": -26.85545 } },
  { "name": "La Cruz", "coord": { "lon": -56.643261, "lat": -29.174431 } },
  { "name": "La Criolla", "coord": { "lon": -58.105579, "lat": -31.269039 } },
  {
    "name": "La Constancia",
    "coord": { "lon": -58.760052, "lat": -37.226219 }
  },
  { "name": "Labardén", "coord": { "lon": -58.103779, "lat": -36.947491 } },
  { "name": "Jubileo", "coord": { "lon": -58.63385, "lat": -31.73358 } },
  { "name": "Juan Pujol", "coord": { "lon": -57.856121, "lat": -30.41873 } },
  {
    "name": "Juan María Gutiérrez",
    "coord": { "lon": -58.190182, "lat": -34.840092 }
  },
  {
    "name": "José Santos Arévalo",
    "coord": { "lon": -59.223129, "lat": -35.17421 }
  },
  { "name": "José Mármol", "coord": { "lon": -58.374889, "lat": -34.787998 } },
  { "name": "Jeppener", "coord": { "lon": -58.19902, "lat": -35.278431 } },
  {
    "name": "Villa Flandria",
    "coord": { "lon": -59.17778, "lat": -34.597431 }
  },
  {
    "name": "Jardín América",
    "coord": { "lon": -55.226978, "lat": -27.043461 }
  },
  { "name": "Ituzaingó", "coord": { "lon": -58.65836, "lat": -34.655819 } },
  {
    "name": "Departamento de Itatí",
    "coord": { "lon": -58, "lat": -27.33333 }
  },
  { "name": "Itatí", "coord": { "lon": -58.244579, "lat": -27.27043 } },
  { "name": "Itá Ibaté", "coord": { "lon": -57.337582, "lat": -27.42573 } },
  {
    "name": "Isidro Casanova",
    "coord": { "lon": -58.590408, "lat": -34.699329 }
  },
  {
    "name": "Ingeniero Otamendi",
    "coord": { "lon": -58.86417, "lat": -34.234169 }
  },
  {
    "name": "Ingeniero Maschwitz",
    "coord": { "lon": -58.737621, "lat": -34.38839 }
  },
  {
    "name": "Ingeniero Budge",
    "coord": { "lon": -58.458462, "lat": -34.719589 }
  },
  {
    "name": "Departamento de Iguazú",
    "coord": { "lon": -54.366669, "lat": -25.866671 }
  },
  { "name": "Ibarreta", "coord": { "lon": -59.858509, "lat": -25.21438 } },
  { "name": "Hurlingham", "coord": { "lon": -58.63905, "lat": -34.58831 } },
  { "name": "Herrera", "coord": { "lon": -58.624619, "lat": -32.435162 } },
  { "name": "Herradura", "coord": { "lon": -58.311981, "lat": -26.487049 } },
  { "name": "Herlitzka", "coord": { "lon": -58.255569, "lat": -27.565161 } },
  { "name": "Heavy", "coord": { "lon": -59.65694, "lat": -34.43066 } },
  { "name": "Hasenkamp", "coord": { "lon": -59.835449, "lat": -31.51226 } },
  { "name": "Guaraní", "coord": { "lon": -55.166672, "lat": -27.51667 } },
  { "name": "Gualeguaychú", "coord": { "lon": -58.51722, "lat": -33.00938 } },
  {
    "name": "Departamento de Gualeguay",
    "coord": { "lon": -59.583328, "lat": -33 }
  },
  { "name": "Gualeguay", "coord": { "lon": -59.309662, "lat": -33.14156 } },
  { "name": "Grand Bourg", "coord": { "lon": -58.72913, "lat": -34.482361 } },
  { "name": "Goyeneche", "coord": { "lon": -58.72353, "lat": -35.342949 } },
  { "name": "Goya", "coord": { "lon": -59.262562, "lat": -29.14003 } },
  {
    "name": "González Catán",
    "coord": { "lon": -58.647141, "lat": -34.768951 }
  },
  {
    "name": "González Calderón",
    "coord": { "lon": -59.416672, "lat": -32.98333 }
  },
  {
    "name": "Gobernador Roca",
    "coord": { "lon": -55.464329, "lat": -27.186359 }
  },
  {
    "name": "Gobernador Mansilla",
    "coord": { "lon": -59.354801, "lat": -32.544529 }
  },
  {
    "name": "Gobernador Juan E. Martínez",
    "coord": { "lon": -58.932919, "lat": -28.917049 }
  },
  {
    "name": "Gobernador Virasora",
    "coord": { "lon": -56.033329, "lat": -28.049999 }
  },
  {
    "name": "Gobernador Castro",
    "coord": { "lon": -59.867802, "lat": -33.65802 }
  },
  { "name": "Glew", "coord": { "lon": -58.37764, "lat": -34.89151 } },
  { "name": "General Vedia", "coord": { "lon": -58.6604, "lat": -26.933821 } },
  { "name": "Villa Urquiza", "coord": { "lon": -58.48333, "lat": -34.566669 } },
  {
    "name": "Partido de General Rodríguez",
    "coord": { "lon": -59, "lat": -34.666672 }
  },
  {
    "name": "General Rodríguez",
    "coord": { "lon": -58.95253, "lat": -34.608379 }
  },
  {
    "name": "General Pacheco",
    "coord": { "lon": -58.64296, "lat": -34.448818 }
  },
  {
    "name": "Partido de General Las Heras",
    "coord": { "lon": -59, "lat": -34.833328 }
  },
  {
    "name": "General Las Heras",
    "coord": { "lon": -58.946209, "lat": -34.927261 }
  },
  {
    "name": "General José de San Martín",
    "coord": { "lon": -59.341579, "lat": -26.53743 }
  },
  {
    "name": "General Galarza",
    "coord": { "lon": -59.396149, "lat": -32.720341 }
  },
  { "name": "General Campos", "coord": { "lon": -58.4049, "lat": -31.523109 } },
  {
    "name": "Partido de General Belgrano",
    "coord": { "lon": -58.75, "lat": -35.75 }
  },
  {
    "name": "General Belgrano",
    "coord": { "lon": -58.493408, "lat": -35.76952 }
  },
  {
    "name": "General Alvear",
    "coord": { "lon": -55.166672, "lat": -27.433331 }
  },
  {
    "name": "General Almada",
    "coord": { "lon": -58.804729, "lat": -32.836899 }
  },
  { "name": "Garupá", "coord": { "lon": -55.829208, "lat": -27.48171 } },
  { "name": "Garuhapé", "coord": { "lon": -54.956638, "lat": -26.81768 } },
  { "name": "Garruchos", "coord": { "lon": -55.639469, "lat": -28.185141 } },
  { "name": "Garín", "coord": { "lon": -58.749001, "lat": -34.420631 } },
  {
    "name": "Francisco Álvarez",
    "coord": { "lon": -58.858341, "lat": -34.633869 }
  },
  {
    "name": "Fortín Aguilar",
    "coord": { "lon": -59.633331, "lat": -27.066669 }
  },
  { "name": "Formosa Province", "coord": { "lon": -60, "lat": -25 } },
  { "name": "Formosa", "coord": { "lon": -58.178139, "lat": -26.17753 } },
  { "name": "Fontana", "coord": { "lon": -59.023918, "lat": -27.418131 } },
  { "name": "Floresta", "coord": { "lon": -58.46619, "lat": -34.63335 } },
  {
    "name": "Florentino Ameghino",
    "coord": { "lon": -55.133331, "lat": -27.566669 }
  },
  {
    "name": "Partido de Florencio Varela",
    "coord": { "lon": -58.25, "lat": -34.833328 }
  },
  {
    "name": "Florencio Varela",
    "coord": { "lon": -58.395561, "lat": -34.827221 }
  },
  { "name": "Felipe Yofré", "coord": { "lon": -58.337719, "lat": -29.102261 } },
  {
    "name": "Ciudad Autónoma de Buenos Aires",
    "coord": { "lon": -58.450001, "lat": -34.599998 }
  },
  { "name": "Federal", "coord": { "lon": -58.78326, "lat": -30.954651 } },
  { "name": "Federación", "coord": { "lon": -57.89962, "lat": -31.00621 } },
  { "name": "Fátima", "coord": { "lon": -58.986549, "lat": -34.43903 } },
  { "name": "Ezpeleta", "coord": { "lon": -58.230782, "lat": -34.748489 } },
  {
    "name": "José María Ezeiza",
    "coord": { "lon": -58.52869, "lat": -34.84787 }
  },
  {
    "name": "Partido de Esteban Echeverría",
    "coord": { "lon": -58.465832, "lat": -34.819172 }
  },
  {
    "name": "Departamento de Esquina",
    "coord": { "lon": -59.333328, "lat": -30 }
  },
  { "name": "Esquina", "coord": { "lon": -59.527191, "lat": -30.014441 } },
  { "name": "Escalada", "coord": { "lon": -59.11396, "lat": -34.159199 } },
  { "name": "Entre Ríos Province", "coord": { "lon": -59, "lat": -32 } },
  { "name": "Energía", "coord": { "lon": -59.35519, "lat": -38.558601 } },
  {
    "name": "Empalme San Vicente",
    "coord": { "lon": -58.376171, "lat": -34.982639 }
  },
  {
    "name": "Emiliano Reynoso",
    "coord": { "lon": -59.876339, "lat": -35.54821 }
  },
  { "name": "El Verano", "coord": { "lon": -58.542309, "lat": -37.740841 } },
  { "name": "El Talar", "coord": { "lon": -58.65086, "lat": -34.470901 } },
  { "name": "El Soberbio", "coord": { "lon": -54.198769, "lat": -27.29846 } },
  { "name": "El Palomar", "coord": { "lon": -58.61528, "lat": -34.541672 } },
  { "name": "El Colorado", "coord": { "lon": -59.37291, "lat": -26.308081 } },
  { "name": "El Alcázar", "coord": { "lon": -54.815231, "lat": -26.71459 } },
  { "name": "Echagüe", "coord": { "lon": -59.282001, "lat": -32.39185 } },
  { "name": "Durazno", "coord": { "lon": -59.277802, "lat": -31.98564 } },
  { "name": "Dos de Mayo", "coord": { "lon": -54.686691, "lat": -27.02277 } },
  { "name": "Dos Arroyos", "coord": { "lon": -55.233639, "lat": -27.70784 } },
  { "name": "Don Torcuato", "coord": { "lon": -58.639149, "lat": -34.496738 } },
  {
    "name": "Don Cristóbal",
    "coord": { "lon": -59.993778, "lat": -32.071201 }
  },
  { "name": "Don Bosco", "coord": { "lon": -58.292679, "lat": -34.701889 } },
  { "name": "Domselaar", "coord": { "lon": -58.285542, "lat": -35.072231 } },
  { "name": "Domínguez", "coord": { "lon": -58.961971, "lat": -31.987101 } },
  {
    "name": "Partido de Dolores",
    "coord": { "lon": -57.666672, "lat": -36.416672 }
  },
  { "name": "Dolores", "coord": { "lon": -57.67918, "lat": -36.313221 } },
  { "name": "Dock Sud", "coord": { "lon": -58.366669, "lat": -34.633331 } },
  { "name": "Dique Luján", "coord": { "lon": -58.68792, "lat": -34.357189 } },
  { "name": "Diamante", "coord": { "lon": -58.416672, "lat": -34.666672 } },
  { "name": "Del Viso", "coord": { "lon": -58.787811, "lat": -34.45013 } },
  { "name": "Curuzú Cuatiá", "coord": { "lon": -58.0546, "lat": -29.79171 } },
  { "name": "Curuzú", "coord": { "lon": -55.824799, "lat": -27.914869 } },
  {
    "name": "Cruz de los Milagros",
    "coord": { "lon": -59.004761, "lat": -28.83646 }
  },
  {
    "name": "Cristiano Muerto",
    "coord": { "lon": -59.604549, "lat": -38.647781 }
  },
  { "name": "Coté-Lai", "coord": { "lon": -59.599998, "lat": -27.5 } },
  { "name": "Corrientes Province", "coord": { "lon": -58, "lat": -29 } },
  { "name": "Corrientes", "coord": { "lon": -58.834099, "lat": -27.4806 } },
  {
    "name": "Coronel Vidal",
    "coord": { "lon": -57.728649, "lat": -37.446041 }
  },
  { "name": "Constitución", "coord": { "lon": -58.38633, "lat": -34.625931 } },
  {
    "name": "Conscripto Bernardi",
    "coord": { "lon": -59.084351, "lat": -31.04837 }
  },
  { "name": "Congreso", "coord": { "lon": -58.39225, "lat": -34.609482 } },
  { "name": "Concordia", "coord": { "lon": -58.020889, "lat": -31.39296 } },
  {
    "name": "Concepción del Uruguay",
    "coord": { "lon": -58.237221, "lat": -32.482491 }
  },
  {
    "name": "Concepción de la Sierra",
    "coord": { "lon": -55.520309, "lat": -27.98311 }
  },
  {
    "name": "Departamento de Concepción",
    "coord": { "lon": -58, "lat": -28.33333 }
  },
  { "name": "Concepción", "coord": { "lon": -57.887772, "lat": -28.39175 } },
  {
    "name": "Comandante Nicanor Otamendi, Republica de Dubai",
    "coord": { "lon": -57.838089, "lat": -38.114151 }
  },
  {
    "name": "Comandante Fontana",
    "coord": { "lon": -59.682121, "lat": -25.33453 }
  },
  {
    "name": "Colonia Wanda",
    "coord": { "lon": -54.428059, "lat": -25.974079 }
  },
  {
    "name": "Colonias Unidas",
    "coord": { "lon": -59.631538, "lat": -26.69825 }
  },
  { "name": "Colonia Elisa", "coord": { "lon": -59.518608, "lat": -26.93041 } },
  { "name": "Colonia Elía", "coord": { "lon": -58.32148, "lat": -32.666248 } },
  {
    "name": "Colonia Benítez",
    "coord": { "lon": -58.94622, "lat": -27.33099 }
  },
  {
    "name": "Colonia Aurora",
    "coord": { "lon": -54.524979, "lat": -27.474279 }
  },
  { "name": "Colegiales", "coord": { "lon": -58.449242, "lat": -34.57365 } },
  { "name": "Clorinda", "coord": { "lon": -57.71851, "lat": -25.284809 } },
  { "name": "Claypole", "coord": { "lon": -58.334339, "lat": -34.796749 } },
  { "name": "Ciudad Evita", "coord": { "lon": -58.529789, "lat": -34.722961 } },
  { "name": "Ciudadela", "coord": { "lon": -58.540779, "lat": -34.637718 } },
  { "name": "Ciervo Petiso", "coord": { "lon": -59.630939, "lat": -26.58041 } },
  {
    "name": "Partido de Chivilcoy",
    "coord": { "lon": -59.916672, "lat": -34.916672 }
  },
  { "name": "Chillar", "coord": { "lon": -59.98436, "lat": -37.312328 } },
  { "name": "Chavarría", "coord": { "lon": -58.572769, "lat": -28.95488 } },
  {
    "name": "Partido de Chascomús",
    "coord": { "lon": -57.833328, "lat": -35.75 }
  },
  { "name": "Chascomús", "coord": { "lon": -58.008091, "lat": -35.572971 } },
  { "name": "Charadai", "coord": { "lon": -59.900002, "lat": -27.633329 } },
  { "name": "Chajarí", "coord": { "lon": -57.979622, "lat": -30.750481 } },
  { "name": "Chacarita", "coord": { "lon": -58.452499, "lat": -34.587009 } },
  { "name": "Cerro Corá", "coord": { "lon": -55.608959, "lat": -27.5131 } },
  { "name": "Cerro Azul", "coord": { "lon": -55.496201, "lat": -27.633101 } },
  { "name": "Cerrito", "coord": { "lon": -57.912769, "lat": -27.84218 } },
  {
    "name": "Centinela del Mar",
    "coord": { "lon": -58.221748, "lat": -38.433159 }
  },
  { "name": "Ceibas", "coord": { "lon": -58.75, "lat": -33.433331 } },
  { "name": "Caseros", "coord": { "lon": -58.478722, "lat": -32.463249 } },
  {
    "name": "Partido de Carmen de Areco",
    "coord": { "lon": -59.833328, "lat": -34.333328 }
  },
  {
    "name": "Carmen de Areco",
    "coord": { "lon": -59.822788, "lat": -34.375332 }
  },
  { "name": "Caraguatay", "coord": { "lon": -54.78093, "lat": -26.605869 } },
  {
    "name": "Capitán Solari",
    "coord": { "lon": -59.56089, "lat": -26.802151 }
  },
  {
    "name": "Partido de Capitán Sarmiento",
    "coord": { "lon": -59.833328, "lat": -34.166672 }
  },
  {
    "name": "Capitán Sarmiento",
    "coord": { "lon": -59.789871, "lat": -34.172691 }
  },
  { "name": "Capioví", "coord": { "lon": -55.060841, "lat": -26.929979 } },
  {
    "name": "Capilla del Señor",
    "coord": { "lon": -59.101791, "lat": -34.292068 }
  },
  { "name": "Cañuelas", "coord": { "lon": -58.760609, "lat": -35.051842 } },
  { "name": "Canning", "coord": { "lon": -58.51054, "lat": -34.878342 } },
  {
    "name": "Departamento de Candelaria",
    "coord": { "lon": -55.5, "lat": -27.5 }
  },
  { "name": "Candelaria", "coord": { "lon": -55.745361, "lat": -27.459499 } },
  { "name": "Campo Viera", "coord": { "lon": -55.033329, "lat": -27.383329 } },
  { "name": "Campo Ramón", "coord": { "lon": -55.019009, "lat": -27.461081 } },
  { "name": "Campo Grande", "coord": { "lon": -54.979771, "lat": -27.207701 } },
  {
    "name": "Partido de Campana",
    "coord": { "lon": -58.916672, "lat": -34.166672 }
  },
  { "name": "Campana", "coord": { "lon": -58.959141, "lat": -34.168739 } },
  { "name": "Camet", "coord": { "lon": -57.605019, "lat": -37.88903 } },
  { "name": "Cacharí", "coord": { "lon": -59.501961, "lat": -36.380299 } },
  { "name": "Caballito", "coord": { "lon": -58.44104, "lat": -34.622639 } },
  { "name": "Buenos Aires", "coord": { "lon": -60, "lat": -36 } },
  { "name": "Buenos Aires", "coord": { "lon": -58.377232, "lat": -34.613152 } },
  {
    "name": "Partido de Brandsen",
    "coord": { "lon": -58.166672, "lat": -35.25 }
  },
  { "name": "Brandsen", "coord": { "lon": -58.234268, "lat": -35.168419 } },
  { "name": "Bovril", "coord": { "lon": -59.445122, "lat": -31.343109 } },
  { "name": "Bouvier", "coord": { "lon": -57.581161, "lat": -25.461969 } },
  { "name": "Boulogne", "coord": { "lon": -58.565811, "lat": -34.50732 } },
  { "name": "Bosques", "coord": { "lon": -58.234428, "lat": -34.819271 } },
  { "name": "Bosch", "coord": { "lon": -58.243622, "lat": -37.64703 } },
  { "name": "Bonpland", "coord": { "lon": -57.431461, "lat": -29.823971 } },
  { "name": "Bonpland", "coord": { "lon": -55.477558, "lat": -27.48218 } },
  { "name": "Boedo", "coord": { "lon": -58.416672, "lat": -34.633331 } },
  { "name": "Boca", "coord": { "lon": -58.36298, "lat": -34.634129 } },
  { "name": "Billinghurst", "coord": { "lon": -58.58559, "lat": -34.579762 } },
  {
    "name": "Bernardo de Irigoyen",
    "coord": { "lon": -53.645809, "lat": -26.255199 }
  },
  { "name": "Bernal", "coord": { "lon": -58.271801, "lat": -34.707279 } },
  {
    "name": "Partido de Berisso",
    "coord": { "lon": -57.833328, "lat": -34.916672 }
  },
  { "name": "Berisso", "coord": { "lon": -57.88303, "lat": -34.873501 } },
  { "name": "Benavídez", "coord": { "lon": -58.701389, "lat": -34.411301 } },
  {
    "name": "Departamento de Bella Vista",
    "coord": { "lon": -58.833328, "lat": -28.5 }
  },
  { "name": "Bella Vista", "coord": { "lon": -59.040089, "lat": -28.50918 } },
  { "name": "Belgrano", "coord": { "lon": -58.45829, "lat": -34.562698 } },
  {
    "name": "Belén de Escobar",
    "coord": { "lon": -58.793079, "lat": -34.349049 }
  },
  { "name": "Beccar", "coord": { "lon": -58.534809, "lat": -34.46312 } },
  { "name": "Batán", "coord": { "lon": -57.709671, "lat": -38.008499 } },
  { "name": "Basavilbaso", "coord": { "lon": -58.878578, "lat": -32.372131 } },
  { "name": "Basail", "coord": { "lon": -59.299999, "lat": -27.866671 } },
  { "name": "Partido de Arrecifes", "coord": { "lon": -60, "lat": -34 } },
  { "name": "Barrio Nuevo", "coord": { "lon": -59.197559, "lat": -37.316639 } },
  { "name": "Barrio Norte", "coord": { "lon": -58.400002, "lat": -34.583328 } },
  {
    "name": "Barrio El Retazo",
    "coord": { "lon": -57.583328, "lat": -37.916672 }
  },
  { "name": "Barranqueras", "coord": { "lon": -58.935791, "lat": -27.48299 } },
  { "name": "Barracas", "coord": { "lon": -58.383411, "lat": -34.649658 } },
  {
    "name": "Partido de Baradero",
    "coord": { "lon": -59.5, "lat": -33.833328 }
  },
  { "name": "Baradero", "coord": { "lon": -59.508072, "lat": -33.81105 } },
  { "name": "Banfield", "coord": { "lon": -58.404099, "lat": -34.744709 } },
  { "name": "Bancalari", "coord": { "lon": -58.600899, "lat": -34.476559 } },
  { "name": "Partido de Balcarce", "coord": { "lon": -58.25, "lat": -37.75 } },
  { "name": "Balcarce", "coord": { "lon": -58.255219, "lat": -37.846161 } },
  { "name": "Partido de Azul", "coord": { "lon": -59.666672, "lat": -36.75 } },
  { "name": "Azul", "coord": { "lon": -59.85854, "lat": -36.776981 } },
  { "name": "Azcuénaga", "coord": { "lon": -59.374409, "lat": -34.364609 } },
  { "name": "Azara", "coord": { "lon": -55.677971, "lat": -28.0616 } },
  { "name": "Partido de Ayacucho", "coord": { "lon": -58.5, "lat": -37 } },
  { "name": "Ayacucho", "coord": { "lon": -58.486912, "lat": -37.151852 } },
  {
    "name": "Partido de Avellaneda",
    "coord": { "lon": -58.333328, "lat": -34.666672 }
  },
  { "name": "Avellaneda", "coord": { "lon": -59.65834, "lat": -29.117611 } },
  { "name": "Atucha", "coord": { "lon": -59.285011, "lat": -33.979969 } },
  { "name": "Arturo Seguí", "coord": { "lon": -58.12579, "lat": -34.889519 } },
  {
    "name": "Arroyo del Medio",
    "coord": { "lon": -55.416672, "lat": -27.700001 }
  },
  {
    "name": "Aristóbulo del Valle",
    "coord": { "lon": -54.896259, "lat": -27.096251 }
  },
  { "name": "Arana", "coord": { "lon": -57.900002, "lat": -35 } },
  {
    "name": "Departamento de Apóstoles",
    "coord": { "lon": -55.75, "lat": -27.91667 }
  },
  { "name": "Apóstoles", "coord": { "lon": -55.753551, "lat": -27.914209 } },
  { "name": "Álzaga", "coord": { "lon": -59.969978, "lat": -37.859692 } },
  { "name": "Alvear", "coord": { "lon": -56.55043, "lat": -29.09683 } },
  { "name": "Alsina", "coord": { "lon": -59.38866, "lat": -33.908981 } },
  {
    "name": "Almirante Brown",
    "coord": { "lon": -58.450001, "lat": -34.666672 }
  },
  { "name": "Almagro", "coord": { "lon": -58.416672, "lat": -34.599998 } },
  { "name": "Almafuerte", "coord": { "lon": -55.39497, "lat": -27.50518 } },
  { "name": "Alejandro Korn", "coord": { "lon": -58.3825, "lat": -34.98278 } },
  { "name": "Aldo Bonzi", "coord": { "lon": -58.518959, "lat": -34.70657 } },
  {
    "name": "Aldea San Juan",
    "coord": { "lon": -58.768822, "lat": -32.69767 }
  },
  {
    "name": "Aldea San Antonio",
    "coord": { "lon": -58.703331, "lat": -32.62376 }
  },
  {
    "name": "Aldea Asunción",
    "coord": { "lon": -59.239262, "lat": -32.821861 }
  },
  { "name": "Alba Posse", "coord": { "lon": -54.682621, "lat": -27.56978 } },
  { "name": "Acassuso", "coord": { "lon": -58.50177, "lat": -34.477058 } },
  { "name": "Abasto", "coord": { "lon": -58.089218, "lat": -34.985149 } },
  {
    "name": "Maquinista Savio",
    "coord": { "lon": -58.798328, "lat": -34.41111 }
  },
  { "name": "El Jagüel", "coord": { "lon": -58.475281, "lat": -34.813332 } },
  { "name": "Guernica", "coord": { "lon": -58.38694, "lat": -34.917221 } },
  {
    "name": "Departamento de Zonda",
    "coord": { "lon": -68.583527, "lat": -31.68494 }
  },
  {
    "name": "Villa Basilio Nievas",
    "coord": { "lon": -68.73333, "lat": -31.549999 }
  },
  { "name": "Zavalla", "coord": { "lon": -60.879551, "lat": -33.01968 } },
  { "name": "Zapata", "coord": { "lon": -68.97905, "lat": -33.479801 } },
  {
    "name": "Departamento de Zapala",
    "coord": { "lon": -69.833328, "lat": -39 }
  },
  { "name": "Zapala", "coord": { "lon": -70.05442, "lat": -38.899158 } },
  { "name": "Yuto", "coord": { "lon": -64.471939, "lat": -23.643419 } },
  { "name": "Yerba Buena", "coord": { "lon": -65.316673, "lat": -26.816669 } },
  {
    "name": "Yacimiento Río Turbio",
    "coord": { "lon": -72.3508, "lat": -51.573212 }
  },
  { "name": "Winifreda", "coord": { "lon": -64.233879, "lat": -36.226429 } },
  { "name": "Wheelwright", "coord": { "lon": -61.208881, "lat": -33.79039 } },
  {
    "name": "Wenceslao Escalante",
    "coord": { "lon": -62.770779, "lat": -33.173031 }
  },
  { "name": "Warnes", "coord": { "lon": -60.535229, "lat": -34.91066 } },
  { "name": "Vistalba", "coord": { "lon": -68.883331, "lat": -33.01667 } },
  { "name": "Vista Flores", "coord": { "lon": -69.154442, "lat": -33.650589 } },
  { "name": "Vista Alegre", "coord": { "lon": -68.183327, "lat": -38.75 } },
  { "name": "Vinchina", "coord": { "lon": -68.206917, "lat": -28.75964 } },
  { "name": "Villa Vieja", "coord": { "lon": -62.700001, "lat": -31.26667 } },
  {
    "name": "Villa Valeria",
    "coord": { "lon": -64.920303, "lat": -34.340931 }
  },
  { "name": "Villa Urquiza", "coord": { "lon": -60.374802, "lat": -31.64731 } },
  {
    "name": "Villa Tulumba",
    "coord": { "lon": -64.122398, "lat": -30.395519 }
  },
  {
    "name": "Villa Trinidad",
    "coord": { "lon": -61.875969, "lat": -30.213289 }
  },
  { "name": "Villa Traful", "coord": { "lon": -71.40583, "lat": -40.657551 } },
  {
    "name": "Villa San José",
    "coord": { "lon": -60.413589, "lat": -34.091259 }
  },
  { "name": "Villa Saboya", "coord": { "lon": -62.646729, "lat": -34.460339 } },
  { "name": "Villa Rumipal", "coord": { "lon": -64.48027, "lat": -32.187901 } },
  {
    "name": "Villa Río Hondo",
    "coord": { "lon": -64.915024, "lat": -27.59341 }
  },
  { "name": "Partido de Villarino", "coord": { "lon": -62.75, "lat": -39 } },
  {
    "name": "Villa Reynolds",
    "coord": { "lon": -65.380074, "lat": -33.720901 }
  },
  { "name": "Villa Regina", "coord": { "lon": -67.066673, "lat": -39.099998 } },
  {
    "name": "Villa Reducción",
    "coord": { "lon": -63.862339, "lat": -33.20105 }
  },
  {
    "name": "Villa Paula de Sarmiento",
    "coord": { "lon": -68.538383, "lat": -31.493299 }
  },
  { "name": "Villa Parque", "coord": { "lon": -60.733459, "lat": -32.87521 } },
  {
    "name": "Villa Ojo de Agua",
    "coord": { "lon": -63.693771, "lat": -29.500031 }
  },
  { "name": "Villa Nueva", "coord": { "lon": -68.78038, "lat": -32.897221 } },
  { "name": "Villa Nueva", "coord": { "lon": -63.247631, "lat": -32.43293 } },
  { "name": "Villa Nueva", "coord": { "lon": -64.833328, "lat": -26.633329 } },
  { "name": "Villa Nueva", "coord": { "lon": -63.666672, "lat": -26.549999 } },
  {
    "name": "Villa Mugueta",
    "coord": { "lon": -61.055149, "lat": -33.311291 }
  },
  { "name": "Villa Minetti", "coord": { "lon": -61.62775, "lat": -28.62133 } },
  { "name": "Villa María", "coord": { "lon": -63.240162, "lat": -32.407509 } },
  { "name": "Villa Luján", "coord": { "lon": -65.25, "lat": -26.816669 } },
  {
    "name": "Villa Las Rosas",
    "coord": { "lon": -65.053543, "lat": -31.950211 }
  },
  {
    "name": "Villa La Angostura",
    "coord": { "lon": -71.646309, "lat": -40.76173 }
  },
  { "name": "Villa Krause", "coord": { "lon": -68.533333, "lat": -31.566669 } },
  { "name": "Villa Iris", "coord": { "lon": -63.234539, "lat": -38.17215 } },
  {
    "name": "Villa Independencia",
    "coord": { "lon": -64.513222, "lat": -31.45594 }
  },
  {
    "name": "Villa Huidobro",
    "coord": { "lon": -64.586861, "lat": -34.838261 }
  },
  {
    "name": "Villa Giardino",
    "coord": { "lon": -64.48333, "lat": -31.033331 }
  },
  {
    "name": "Villa General Mitre",
    "coord": { "lon": -62.652481, "lat": -29.143101 }
  },
  {
    "name": "Villa General Belgrano",
    "coord": { "lon": -64.555901, "lat": -31.97542 }
  },
  {
    "name": "Villa Fontana",
    "coord": { "lon": -63.115341, "lat": -30.893761 }
  },
  {
    "name": "Villa Florida",
    "coord": { "lon": -65.366669, "lat": -23.549999 }
  },
  { "name": "Villa Estela", "coord": { "lon": -61.311958, "lat": -33.709141 } },
  { "name": "Villa Espora", "coord": { "lon": -62.168442, "lat": -38.742722 } },
  { "name": "Villa Dolores", "coord": { "lon": -65.189583, "lat": -31.94585 } },
  { "name": "Villa de Soto", "coord": { "lon": -64.999474, "lat": -30.85523 } },
  {
    "name": "Villa del Totoral",
    "coord": { "lon": -63.716671, "lat": -30.816669 }
  },
  {
    "name": "Villa del Rosario",
    "coord": { "lon": -63.534519, "lat": -31.556601 }
  },
  {
    "name": "Villa del Lago",
    "coord": { "lon": -64.50666, "lat": -31.416479 }
  },
  {
    "name": "Villa del Dique",
    "coord": { "lon": -64.455429, "lat": -32.17667 }
  },
  { "name": "Villada", "coord": { "lon": -61.444401, "lat": -33.34856 } },
  {
    "name": "Villa Cura Brochero",
    "coord": { "lon": -65.01796, "lat": -31.70578 }
  },
  {
    "name": "Villa Constitución",
    "coord": { "lon": -60.3297, "lat": -33.227779 }
  },
  {
    "name": "Villa Concepción del Tío",
    "coord": { "lon": -62.813541, "lat": -31.32259 }
  },
  {
    "name": "Villa Colonia Italiana",
    "coord": { "lon": -62.17894, "lat": -33.312199 }
  },
  {
    "name": "Villa Colanchanga",
    "coord": { "lon": -64.354927, "lat": -31.1462 }
  },
  {
    "name": "Chañar Ladeado",
    "coord": { "lon": -62.038311, "lat": -33.325241 }
  },
  {
    "name": "Villa Castelar",
    "coord": { "lon": -62.806969, "lat": -37.38575 }
  },
  { "name": "Villa Carmela", "coord": { "lon": -65.283333, "lat": -26.75 } },
  {
    "name": "Villa Carlos Paz",
    "coord": { "lon": -64.49778, "lat": -31.424141 }
  },
  { "name": "Villa Cañás", "coord": { "lon": -61.607571, "lat": -34.00565 } },
  { "name": "Villa Bustos", "coord": { "lon": -67.022491, "lat": -29.28356 } },
  { "name": "Villa Berthet", "coord": { "lon": -60.412628, "lat": -27.29174 } },
  { "name": "Villa Benegas", "coord": { "lon": -64.95591, "lat": -31.640579 } },
  {
    "name": "Villa Belgrano",
    "coord": { "lon": -64.252907, "lat": -31.35722 }
  },
  {
    "name": "Villa Belgrano",
    "coord": { "lon": -65.614723, "lat": -27.52655 }
  },
  { "name": "Villa Atuel", "coord": { "lon": -67.861771, "lat": -34.831322 } },
  {
    "name": "Villa Atamisqui",
    "coord": { "lon": -63.81609, "lat": -28.49609 }
  },
  {
    "name": "Villa Ascasubi",
    "coord": { "lon": -63.891571, "lat": -32.163509 }
  },
  { "name": "Villa Ángela", "coord": { "lon": -60.71526, "lat": -27.57383 } },
  { "name": "Villa Allende", "coord": { "lon": -64.29538, "lat": -31.29458 } },
  {
    "name": "Villa Albertina",
    "coord": { "lon": -64.333328, "lat": -30.683331 }
  },
  { "name": "Villa Aberastain", "coord": { "lon": -68.583328, "lat": -31.65 } },
  { "name": "Viedma", "coord": { "lon": -62.996681, "lat": -40.81345 } },
  { "name": "Videla", "coord": { "lon": -60.65453, "lat": -30.94458 } },
  {
    "name": "Vicuña Mackenna",
    "coord": { "lon": -64.392151, "lat": -33.919651 }
  },
  { "name": "Victorica", "coord": { "lon": -65.43586, "lat": -36.21505 } },
  {
    "name": "Departamento de Victoria",
    "coord": { "lon": -60.333328, "lat": -32.666672 }
  },
  { "name": "Victoria", "coord": { "lon": -60.154781, "lat": -32.618408 } },
  { "name": "Viclos", "coord": { "lon": -64.900002, "lat": -27.16667 } },
  { "name": "Viamonte", "coord": { "lon": -63.097641, "lat": -33.746471 } },
  { "name": "Viale", "coord": { "lon": -60.007221, "lat": -31.867821 } },
  { "name": "Vera", "coord": { "lon": -60.212608, "lat": -29.459299 } },
  { "name": "Venado Tuerto", "coord": { "lon": -61.968842, "lat": -33.74556 } },
  {
    "name": "28 de Noviembre",
    "coord": { "lon": -72.300003, "lat": -51.650002 }
  },
  {
    "name": "Partido de Veinticinco de Mayo",
    "coord": { "lon": -60.25, "lat": -35.5 }
  },
  {
    "name": "Veinticinco de Mayo",
    "coord": { "lon": -67.716377, "lat": -37.774101 }
  },
  {
    "name": "Veinticinco de Mayo",
    "coord": { "lon": -60.17271, "lat": -35.432301 }
  },
  { "name": "Vedia", "coord": { "lon": -61.541382, "lat": -34.495579 } },
  { "name": "Vaqueros", "coord": { "lon": -65.397911, "lat": -24.705851 } },
  {
    "name": "Valle Hermoso",
    "coord": { "lon": -64.480843, "lat": -31.117319 }
  },
  { "name": "Valle", "coord": { "lon": -67.48333, "lat": -45.799999 } },
  { "name": "Valenzuela", "coord": { "lon": -65.403313, "lat": -27.4139 } },
  { "name": "Valcheta", "coord": { "lon": -66.150002, "lat": -40.700001 } },
  { "name": "Uspallata", "coord": { "lon": -69.348717, "lat": -32.591702 } },
  { "name": "Ushuaia", "coord": { "lon": -68.300003, "lat": -54.799999 } },
  { "name": "Uriburu", "coord": { "lon": -63.862259, "lat": -36.506821 } },
  { "name": "Uranga", "coord": { "lon": -60.70406, "lat": -33.269161 } },
  { "name": "Unquillo", "coord": { "lon": -64.316147, "lat": -31.23073 } },
  { "name": "Unión", "coord": { "lon": -65.946022, "lat": -35.152821 } },
  { "name": "Ucacha", "coord": { "lon": -63.50666, "lat": -33.032028 } },
  { "name": "Tusquitas", "coord": { "lon": -64.924789, "lat": -27.101101 } },
  { "name": "Tunuyán", "coord": { "lon": -69.015381, "lat": -33.57653 } },
  { "name": "Tucumán Province", "coord": { "lon": -65.5, "lat": -27 } },
  { "name": "Trinidad", "coord": { "lon": -68.51667, "lat": -31.549999 } },
  { "name": "Trevelin", "coord": { "lon": -71.46386, "lat": -43.0858 } },
  { "name": "Tres Lomas", "coord": { "lon": -62.86047, "lat": -36.457218 } },
  { "name": "Tres Isletas", "coord": { "lon": -60.432072, "lat": -26.34066 } },
  {
    "name": "Partido de Tres Arroyos",
    "coord": { "lon": -60.25, "lat": -38.5 }
  },
  { "name": "Tres Arroyos", "coord": { "lon": -60.279781, "lat": -38.37394 } },
  {
    "name": "Tres Algarrobos",
    "coord": { "lon": -62.77396, "lat": -35.19471 }
  },
  {
    "name": "Partido de Trenque Lauquen",
    "coord": { "lon": -62.666672, "lat": -36 }
  },
  {
    "name": "Trenque Lauquen",
    "coord": { "lon": -62.734322, "lat": -35.970348 }
  },
  {
    "name": "Departamento de Trenel",
    "coord": { "lon": -64.25, "lat": -35.666672 }
  },
  { "name": "Trenel", "coord": { "lon": -64.132179, "lat": -35.698372 } },
  { "name": "Trelew", "coord": { "lon": -65.305054, "lat": -43.248951 } },
  { "name": "Tránsito", "coord": { "lon": -63.196011, "lat": -31.4252 } },
  { "name": "Trancas", "coord": { "lon": -65.280251, "lat": -26.23135 } },
  { "name": "Totoras", "coord": { "lon": -61.168522, "lat": -32.5844 } },
  { "name": "Tostado", "coord": { "lon": -61.769169, "lat": -29.232019 } },
  { "name": "Tortugas", "coord": { "lon": -61.820091, "lat": -32.747799 } },
  { "name": "Partido de Tornquist", "coord": { "lon": -62.25, "lat": -38.25 } },
  { "name": "Tornquist", "coord": { "lon": -62.222672, "lat": -38.101219 } },
  { "name": "Toledo", "coord": { "lon": -64.009468, "lat": -31.55574 } },
  {
    "name": "Departamento de Toay",
    "coord": { "lon": -64.800003, "lat": -36.583328 }
  },
  { "name": "Toay", "coord": { "lon": -64.378601, "lat": -36.673382 } },
  { "name": "Tío Pujio", "coord": { "lon": -63.35598, "lat": -32.287899 } },
  { "name": "Tintina", "coord": { "lon": -62.716671, "lat": -27.033331 } },
  { "name": "Tinogasta", "coord": { "lon": -67.56488, "lat": -28.06319 } },
  { "name": "Tilisarao", "coord": { "lon": -65.291092, "lat": -32.732922 } },
  {
    "name": "Departamento de Tilcara",
    "coord": { "lon": -65.333328, "lat": -23.5 }
  },
  { "name": "Tilcara", "coord": { "lon": -65.350899, "lat": -23.57757 } },
  {
    "name": "Tierra del Fuego Province",
    "coord": { "lon": -67, "lat": -54.5 }
  },
  { "name": "Ticino", "coord": { "lon": -63.436062, "lat": -32.693501 } },
  {
    "name": "Termas Villavicencio",
    "coord": { "lon": -69.015892, "lat": -32.527382 }
  },
  {
    "name": "Termas de Río Hondo",
    "coord": { "lon": -64.86042, "lat": -27.49983 }
  },
  { "name": "Teodelina", "coord": { "lon": -61.528809, "lat": -34.186878 } },
  {
    "name": "Teniente Origone",
    "coord": { "lon": -62.569408, "lat": -39.058689 }
  },
  { "name": "Telén", "coord": { "lon": -65.510178, "lat": -36.26429 } },
  { "name": "Tartagal", "coord": { "lon": -63.801311, "lat": -22.516359 } },
  { "name": "Taquello", "coord": { "lon": -64.782227, "lat": -27.43741 } },
  { "name": "Tapalqué", "coord": { "lon": -60.026402, "lat": -36.354931 } },
  { "name": "Tanti", "coord": { "lon": -64.592018, "lat": -31.35601 } },
  { "name": "Tancacha", "coord": { "lon": -63.980701, "lat": -32.243092 } },
  { "name": "Tala Cañada", "coord": { "lon": -64.969879, "lat": -31.357389 } },
  { "name": "Tafí Viejo", "coord": { "lon": -65.259209, "lat": -26.73201 } },
  {
    "name": "Tafí del Valle",
    "coord": { "lon": -65.709831, "lat": -26.852751 }
  },
  { "name": "Tacural", "coord": { "lon": -61.591919, "lat": -30.846319 } },
  { "name": "Tacuarí", "coord": { "lon": -60.308559, "lat": -34.211491 } },
  { "name": "Taco Pozo", "coord": { "lon": -63.283329, "lat": -25.616671 } },
  { "name": "Tacanas", "coord": { "lon": -64.809288, "lat": -27.13752 } },
  { "name": "Susana", "coord": { "lon": -61.51577, "lat": -31.355961 } },
  {
    "name": "Suncho Corral",
    "coord": { "lon": -63.429379, "lat": -27.933571 }
  },
  { "name": "Sunchales", "coord": { "lon": -61.561481, "lat": -30.94404 } },
  { "name": "Sumampa", "coord": { "lon": -63.469059, "lat": -29.384701 } },
  { "name": "Suardi", "coord": { "lon": -61.961189, "lat": -30.535721 } },
  { "name": "Soldini", "coord": { "lon": -60.755291, "lat": -33.027599 } },
  {
    "name": "Sindicato Dodero",
    "coord": { "lon": -67.631432, "lat": -46.061771 }
  },
  { "name": "Simoca", "coord": { "lon": -65.356468, "lat": -27.26272 } },
  {
    "name": "Sierras Bayas",
    "coord": { "lon": -60.159229, "lat": -36.933399 }
  },
  {
    "name": "Sierra Grande",
    "coord": { "lon": -65.355743, "lat": -41.606022 }
  },
  {
    "name": "Sierra de la Ventana",
    "coord": { "lon": -61.795181, "lat": -38.138069 }
  },
  {
    "name": "Sierra Colorada",
    "coord": { "lon": -67.756737, "lat": -40.584869 }
  },
  { "name": "Serrezuela", "coord": { "lon": -65.386917, "lat": -30.637609 } },
  { "name": "Serrano", "coord": { "lon": -63.538422, "lat": -34.469711 } },
  { "name": "Serodino", "coord": { "lon": -60.94817, "lat": -32.605881 } },
  { "name": "Senillosa", "coord": { "lon": -68.416672, "lat": -39 } },
  { "name": "Selva", "coord": { "lon": -62.047699, "lat": -29.767759 } },
  { "name": "Seguí", "coord": { "lon": -60.124882, "lat": -31.956421 } },
  {
    "name": "Sebastián Elcano",
    "coord": { "lon": -63.593601, "lat": -30.161051 }
  },
  { "name": "Sauce Viejo", "coord": { "lon": -60.836658, "lat": -31.77125 } },
  {
    "name": "Saturnino M. Laspiur",
    "coord": { "lon": -62.482021, "lat": -31.702869 }
  },
  { "name": "Sastre", "coord": { "lon": -61.828861, "lat": -31.76762 } },
  { "name": "Sarmiento", "coord": { "lon": -69.069962, "lat": -45.58815 } },
  { "name": "San Vicente", "coord": { "lon": -65.087601, "lat": -26.97653 } },
  { "name": "Santo Tomé", "coord": { "lon": -60.765301, "lat": -31.662741 } },
  { "name": "Santo Tomás", "coord": { "lon": -61.50631, "lat": -35.672588 } },
  {
    "name": "Santiago Temple",
    "coord": { "lon": -63.418209, "lat": -31.38731 }
  },
  {
    "name": "Santiago del Estero Province",
    "coord": { "lon": -63.5, "lat": -28 }
  },
  {
    "name": "Santiago del Estero",
    "coord": { "lon": -64.26149, "lat": -27.795111 }
  },
  { "name": "Santa Sylvina", "coord": { "lon": -61.13747, "lat": -27.832609 } },
  {
    "name": "Santa Rosa de Tastil",
    "coord": { "lon": -65.974518, "lat": -24.45166 }
  },
  {
    "name": "Santa Rosa de Río Primero",
    "coord": { "lon": -63.401909, "lat": -31.152309 }
  },
  {
    "name": "Santa Rosa de Leales",
    "coord": { "lon": -65.260513, "lat": -27.136881 }
  },
  {
    "name": "Santa Rosa del Conlara",
    "coord": { "lon": -65.203232, "lat": -32.342861 }
  },
  {
    "name": "Santa Rosa de Calamuchita",
    "coord": { "lon": -64.536308, "lat": -32.06905 }
  },
  { "name": "Santa Rosa", "coord": { "lon": -64.283333, "lat": -36.616669 } },
  { "name": "Santa Rosa", "coord": { "lon": -60.33342, "lat": -31.419689 } },
  { "name": "Santa Regina", "coord": { "lon": -63.172531, "lat": -34.549278 } },
  { "name": "Santa María", "coord": { "lon": -64.466667, "lat": -31.26667 } },
  { "name": "Santa María", "coord": { "lon": -63.400002, "lat": -29.48333 } },
  { "name": "Santa María", "coord": { "lon": -63.260319, "lat": -26.21797 } },
  {
    "name": "Santa Magdalena",
    "coord": { "lon": -63.944092, "lat": -34.517761 }
  },
  {
    "name": "Departamento de Santa Lucía",
    "coord": { "lon": -68.466667, "lat": -31.533331 }
  },
  { "name": "Santa Lucía", "coord": { "lon": -68.495033, "lat": -31.539869 } },
  { "name": "Santa Lucía", "coord": { "lon": -63.51329, "lat": -28.725731 } },
  { "name": "Santa Isabel", "coord": { "lon": -66.942398, "lat": -36.227242 } },
  { "name": "Santa Isabel", "coord": { "lon": -61.692848, "lat": -33.887051 } },
  { "name": "Santa Fe Province", "coord": { "lon": -61, "lat": -31 } },
  { "name": "Santa Fe", "coord": { "lon": -60.700001, "lat": -31.633329 } },
  { "name": "Santa Eufemia", "coord": { "lon": -63.28281, "lat": -33.176579 } },
  { "name": "Santa Cruz Province", "coord": { "lon": -70, "lat": -49 } },
  {
    "name": "Santa Clara de Saguier",
    "coord": { "lon": -61.818371, "lat": -31.33774 }
  },
  {
    "name": "Santa Clara de Buena Vista",
    "coord": { "lon": -61.31982, "lat": -31.763901 }
  },
  { "name": "Santa Clara", "coord": { "lon": -64.662529, "lat": -24.30921 } },
  { "name": "Sansinena", "coord": { "lon": -63.21381, "lat": -35.276531 } },
  {
    "name": "San Salvador de Jujuy",
    "coord": { "lon": -65.297119, "lat": -24.194559 }
  },
  {
    "name": "San Ramón de la Nueva Orán",
    "coord": { "lon": -64.325981, "lat": -23.132231 }
  },
  { "name": "San Ramón", "coord": { "lon": -65.527351, "lat": -25.01833 } },
  { "name": "San Rafael", "coord": { "lon": -68.33007, "lat": -34.617722 } },
  {
    "name": "Departamento de San Pedro",
    "coord": { "lon": -64.833328, "lat": -24.33333 }
  },
  { "name": "San Pedro", "coord": { "lon": -60.527939, "lat": -31.236389 } },
  { "name": "San Pedro", "coord": { "lon": -65.166496, "lat": -27.953859 } },
  {
    "name": "San Pedro de Jujuy",
    "coord": { "lon": -64.866142, "lat": -24.23127 }
  },
  {
    "name": "San Nicolás de los Arroyos",
    "coord": { "lon": -60.225231, "lat": -33.335781 }
  },
  {
    "name": "San Miguel de Tucumán",
    "coord": { "lon": -65.222603, "lat": -26.824141 }
  },
  { "name": "San Mauricio", "coord": { "lon": -63.187801, "lat": -35.510719 } },
  {
    "name": "San Martín de los Andes",
    "coord": { "lon": -71.348648, "lat": -40.160381 }
  },
  {
    "name": "San Martín de las Escobas",
    "coord": { "lon": -61.569851, "lat": -31.8578 }
  },
  {
    "name": "Departamento de Libertador General San Martín",
    "coord": { "lon": -65.666672, "lat": -32.666672 }
  },
  {
    "name": "Departamento de San Martín",
    "coord": { "lon": -68.25, "lat": -31.5 }
  },
  { "name": "San Martín", "coord": { "lon": -68.46814, "lat": -33.081032 } },
  { "name": "San Martín", "coord": { "lon": -68.35273, "lat": -31.515989 } },
  {
    "name": "San Marcos Sierra",
    "coord": { "lon": -64.693237, "lat": -30.79298 }
  },
  { "name": "San Luis Province", "coord": { "lon": -66, "lat": -34 } },
  { "name": "San Luis", "coord": { "lon": -66.335632, "lat": -33.29501 } },
  { "name": "San Lorenzo", "coord": { "lon": -65.0187, "lat": -31.6789 } },
  {
    "name": "Departamento de San Justo",
    "coord": { "lon": -60.5, "lat": -30.66667 }
  },
  { "name": "San Justo", "coord": { "lon": -60.591888, "lat": -30.789129 } },
  { "name": "San Justo", "coord": { "lon": -64.73333, "lat": -28.15 } },
  { "name": "San Juan Province", "coord": { "lon": -69, "lat": -31 } },
  { "name": "San Juan", "coord": { "lon": -68.536392, "lat": -31.5375 } },
  {
    "name": "San José del Rincón",
    "coord": { "lon": -60.567612, "lat": -31.604259 }
  },
  {
    "name": "San José de la Esquina",
    "coord": { "lon": -61.703159, "lat": -33.114441 }
  },
  {
    "name": "San José de la Dormida",
    "coord": { "lon": -63.948719, "lat": -30.354401 }
  },
  {
    "name": "San José de Jáchal",
    "coord": { "lon": -68.746933, "lat": -30.24057 }
  },
  { "name": "San Jorge", "coord": { "lon": -61.85984, "lat": -31.896179 } },
  {
    "name": "San Jerónimo Sur",
    "coord": { "lon": -61.025082, "lat": -32.87991 }
  },
  {
    "name": "San Jerónimo Norte",
    "coord": { "lon": -61.077339, "lat": -31.55097 }
  },
  {
    "name": "San Jerónimo del Sauce",
    "coord": { "lon": -61.14164, "lat": -31.60844 }
  },
  { "name": "San Ignacio", "coord": { "lon": -64.521301, "lat": -30.976789 } },
  { "name": "San Guillermo", "coord": { "lon": -61.917881, "lat": -30.35976 } },
  { "name": "San Gregorio", "coord": { "lon": -62.035782, "lat": -34.3237 } },
  { "name": "San Genaro", "coord": { "lon": -61.356812, "lat": -32.369572 } },
  { "name": "San Gabriel", "coord": { "lon": -65.449692, "lat": -27.104561 } },
  {
    "name": "San Francisco del Monte de Oro",
    "coord": { "lon": -66.125389, "lat": -32.598251 }
  },
  {
    "name": "San Francisco del Chañar",
    "coord": { "lon": -63.93861, "lat": -29.789909 }
  },
  {
    "name": "San Francisco",
    "coord": { "lon": -62.082661, "lat": -31.427971 }
  },
  {
    "name": "San Fernando del Valle de Catamarca",
    "coord": { "lon": -65.78524, "lat": -28.46957 }
  },
  { "name": "San Fernando", "coord": { "lon": -64.380493, "lat": -31.26935 } },
  { "name": "San Eduardo", "coord": { "lon": -62.09137, "lat": -33.87001 } },
  {
    "name": "Sancti Spíritu",
    "coord": { "lon": -62.238789, "lat": -34.014019 }
  },
  {
    "name": "Departamento de San Cristóbal",
    "coord": { "lon": -61.333328, "lat": -30.33333 }
  },
  { "name": "San Cristóbal", "coord": { "lon": -61.23724, "lat": -30.31053 } },
  {
    "name": "San Carlos Sur",
    "coord": { "lon": -61.101189, "lat": -31.75692 }
  },
  {
    "name": "San Carlos Norte",
    "coord": { "lon": -61.074001, "lat": -31.67333 }
  },
  {
    "name": "San Carlos de Bolívar",
    "coord": { "lon": -61.099998, "lat": -36.25 }
  },
  {
    "name": "San Carlos de Bariloche",
    "coord": { "lon": -71.300003, "lat": -41.150002 }
  },
  {
    "name": "San Carlos Centro",
    "coord": { "lon": -61.091919, "lat": -31.72864 }
  },
  { "name": "San Carlos", "coord": { "lon": -65.102448, "lat": -31.17761 } },
  { "name": "San Bernardo", "coord": { "lon": -60.712521, "lat": -27.287821 } },
  { "name": "San Benito", "coord": { "lon": -60.441559, "lat": -31.78371 } },
  { "name": "San Basilio", "coord": { "lon": -64.314949, "lat": -33.497631 } },
  {
    "name": "San Antonio Oeste",
    "coord": { "lon": -64.947693, "lat": -40.73193 }
  },
  {
    "name": "San Antonio de los Cobres",
    "coord": { "lon": -66.318771, "lat": -24.21804 }
  },
  {
    "name": "San Antonio de Litín",
    "coord": { "lon": -62.63237, "lat": -32.213772 }
  },
  {
    "name": "San Antonio de Arredondo",
    "coord": { "lon": -64.530418, "lat": -31.47949 }
  },
  { "name": "San Antonio", "coord": { "lon": -65.712181, "lat": -28.00927 } },
  { "name": "San Antonio", "coord": { "lon": -65.014122, "lat": -27.15378 } },
  { "name": "San Ambrosio", "coord": { "lon": -65.890221, "lat": -33.037319 } },
  {
    "name": "Departamento de San Alberto",
    "coord": { "lon": -65.25, "lat": -31.75 }
  },
  {
    "name": "San Agustín de Valle Fértil",
    "coord": { "lon": -67.468208, "lat": -30.63353 }
  },
  { "name": "San Agustín", "coord": { "lon": -64.374001, "lat": -31.97681 } },
  { "name": "Samuhú", "coord": { "lon": -60.39167, "lat": -27.52116 } },
  { "name": "Sampacho", "coord": { "lon": -64.722107, "lat": -33.3839 } },
  { "name": "Salto Grande", "coord": { "lon": -61.08741, "lat": -32.668011 } },
  { "name": "Partido de Salto", "coord": { "lon": -60.25, "lat": -34.25 } },
  { "name": "Salto", "coord": { "lon": -60.254551, "lat": -34.292919 } },
  { "name": "Salta Province", "coord": { "lon": -65.43457, "lat": -24.75806 } },
  { "name": "Salta", "coord": { "lon": -65.411659, "lat": -24.7859 } },
  { "name": "Salsipuedes", "coord": { "lon": -64.295891, "lat": -31.137239 } },
  { "name": "Salsacate", "coord": { "lon": -65.085289, "lat": -31.31649 } },
  {
    "name": "Partido de Salliqueló",
    "coord": { "lon": -63.083328, "lat": -36.666672 }
  },
  { "name": "Salliqueló", "coord": { "lon": -62.960529, "lat": -36.752159 } },
  { "name": "Saldungaray", "coord": { "lon": -61.770672, "lat": -38.204929 } },
  { "name": "Saldán", "coord": { "lon": -64.306999, "lat": -31.30262 } },
  { "name": "Salazar", "coord": { "lon": -62.200001, "lat": -36.299999 } },
  {
    "name": "Departamento de Salavina",
    "coord": { "lon": -63.299999, "lat": -28.91667 }
  },
  {
    "name": "Saladero M. Cabal",
    "coord": { "lon": -60.036758, "lat": -30.880751 }
  },
  { "name": "Saira", "coord": { "lon": -62.10244, "lat": -32.408218 } },
  { "name": "Sacanta", "coord": { "lon": -63.045052, "lat": -31.663 } },
  { "name": "Partido de Saavedra", "coord": { "lon": -62.5, "lat": -37.75 } },
  { "name": "Saavedra", "coord": { "lon": -62.349918, "lat": -37.76273 } },
  { "name": "Rufino", "coord": { "lon": -62.71262, "lat": -34.268269 } },
  {
    "name": "Departamento de Rosario de la Frontera",
    "coord": { "lon": -64.833328, "lat": -25.91667 }
  },
  {
    "name": "Rosario de la Frontera",
    "coord": { "lon": -64.97094, "lat": -25.79693 }
  },
  {
    "name": "Rosario Department",
    "coord": { "lon": -60.75, "lat": -33.166672 }
  },
  { "name": "Rosario", "coord": { "lon": -60.63932, "lat": -32.946819 } },
  { "name": "Rosales", "coord": { "lon": -63.153099, "lat": -34.173458 } },
  { "name": "Rolón", "coord": { "lon": -63.414982, "lat": -37.167801 } },
  { "name": "Roldán", "coord": { "lon": -60.906811, "lat": -32.89846 } },
  { "name": "Partido de Rojas", "coord": { "lon": -60.75, "lat": -34.25 } },
  { "name": "Rojas", "coord": { "lon": -60.735001, "lat": -34.195278 } },
  {
    "name": "Rodeo del Medio",
    "coord": { "lon": -68.683319, "lat": -32.99353 }
  },
  {
    "name": "Departamento de Robles",
    "coord": { "lon": -63.916672, "lat": -27.83333 }
  },
  { "name": "Rivera", "coord": { "lon": -63.24464, "lat": -37.158951 } },
  { "name": "Rivadavia", "coord": { "lon": -68.460808, "lat": -33.19051 } },
  { "name": "Río Tercero", "coord": { "lon": -64.114059, "lat": -32.173012 } },
  {
    "name": "Departamento de Río Segundo",
    "coord": { "lon": -63.5, "lat": -31.75 }
  },
  { "name": "Río Segundo", "coord": { "lon": -63.909901, "lat": -31.652599 } },
  { "name": "Río Primero", "coord": { "lon": -63.616669, "lat": -31.33333 } },
  { "name": "Río Pico", "coord": { "lon": -71.368469, "lat": -44.179039 } },
  { "name": "Río Negro Province", "coord": { "lon": -67, "lat": -40 } },
  { "name": "Río Mayo", "coord": { "lon": -70.257973, "lat": -45.68573 } },
  { "name": "Río Grande", "coord": { "lon": -67.709457, "lat": -53.787689 } },
  { "name": "Río Gallegos", "coord": { "lon": -69.218132, "lat": -51.622608 } },
  {
    "name": "Departamento de Río Cuarto",
    "coord": { "lon": -64.5, "lat": -33.333328 }
  },
  { "name": "Río Cuarto", "coord": { "lon": -64.349922, "lat": -33.130669 } },
  { "name": "Río Colorado", "coord": { "lon": -64.093842, "lat": -38.99176 } },
  { "name": "Río Ceballos", "coord": { "lon": -64.322411, "lat": -31.16486 } },
  {
    "name": "Rincón del Doll",
    "coord": { "lon": -60.392479, "lat": -32.436352 }
  },
  { "name": "Ricardone", "coord": { "lon": -60.782398, "lat": -32.76923 } },
  {
    "name": "Ricardo Gaviña",
    "coord": { "lon": -60.039082, "lat": -37.444752 }
  },
  { "name": "Retamito", "coord": { "lon": -68.601784, "lat": -32.1022 } },
  { "name": "Recreo", "coord": { "lon": -60.73299, "lat": -31.490761 } },
  { "name": "Recreo", "coord": { "lon": -65.060959, "lat": -29.281839 } },
  {
    "name": "Departamento de Realicó",
    "coord": { "lon": -64.25, "lat": -35.25 }
  },
  { "name": "Realicó", "coord": { "lon": -64.244698, "lat": -35.036579 } },
  {
    "name": "Real del Padre",
    "coord": { "lon": -67.764992, "lat": -34.841419 }
  },
  {
    "name": "Departamento de Rawson",
    "coord": { "lon": -65, "lat": -43.333328 }
  },
  { "name": "Rawson", "coord": { "lon": -65.10228, "lat": -43.300159 } },
  { "name": "Rancul", "coord": { "lon": -64.681068, "lat": -35.068619 } },
  { "name": "Ranchillos", "coord": { "lon": -65.045532, "lat": -26.954241 } },
  {
    "name": "Partido de Ramallo",
    "coord": { "lon": -60.083328, "lat": -33.5 }
  },
  { "name": "Ramallo", "coord": { "lon": -60.007069, "lat": -33.484821 } },
  { "name": "Rama Caída", "coord": { "lon": -68.381989, "lat": -34.67749 } },
  { "name": "Rafaela", "coord": { "lon": -61.486698, "lat": -31.25033 } },
  { "name": "Rada Tilly", "coord": { "lon": -67.533333, "lat": -45.933331 } },
  {
    "name": "Departamento de Quitilipi",
    "coord": { "lon": -60.166672, "lat": -26.66667 }
  },
  { "name": "Quitilipi", "coord": { "lon": -60.216831, "lat": -26.869129 } },
  { "name": "Quiroga", "coord": { "lon": -61.406719, "lat": -35.292919 } },
  { "name": "Quimilí", "coord": { "lon": -62.416672, "lat": -27.633329 } },
  { "name": "Quilino", "coord": { "lon": -64.500633, "lat": -30.21397 } },
  {
    "name": "Departamento de Quemú Quemú",
    "coord": { "lon": -63.75, "lat": -36.25 }
  },
  { "name": "Quemú Quemú", "coord": { "lon": -63.564281, "lat": -36.05463 } },
  {
    "name": "Departamento de Quebrachos",
    "coord": { "lon": -63.333328, "lat": -29.33333 }
  },
  {
    "name": "Quebracho Herrado",
    "coord": { "lon": -62.2262, "lat": -31.54891 }
  },
  { "name": "Punta Alta", "coord": { "lon": -62.073589, "lat": -38.875881 } },
  {
    "name": "Departamento de Punilla",
    "coord": { "lon": -64.666672, "lat": -31.16667 }
  },
  { "name": "Pujato", "coord": { "lon": -61.043228, "lat": -33.017658 } },
  { "name": "Puiggari", "coord": { "lon": -60.447289, "lat": -32.05452 } },
  {
    "name": "Puerto Santa Cruz",
    "coord": { "lon": -68.523209, "lat": -50.0191 }
  },
  {
    "name": "Puerto San Martín",
    "coord": { "lon": -60.736198, "lat": -32.715321 }
  },
  {
    "name": "Puerto San Lorenzo",
    "coord": { "lon": -60.734631, "lat": -32.727482 }
  },
  { "name": "San Julián", "coord": { "lon": -67.727432, "lat": -49.305538 } },
  {
    "name": "Puerto Madryn",
    "coord": { "lon": -65.038513, "lat": -42.769199 }
  },
  {
    "name": "Puerto Deseado",
    "coord": { "lon": -65.893822, "lat": -47.75034 }
  },
  {
    "name": "Puerta de Corral Quemado",
    "coord": { "lon": -66.936348, "lat": -27.23 }
  },
  { "name": "Pueblo Elisa", "coord": { "lon": -61.519081, "lat": -32.680672 } },
  {
    "name": "Pueblo Buena Parada",
    "coord": { "lon": -64.033333, "lat": -39.01667 }
  },
  { "name": "Puan", "coord": { "lon": -62.767231, "lat": -37.545761 } },
  { "name": "Progresso", "coord": { "lon": -60.989521, "lat": -31.13773 } },
  {
    "name": "Profesor Salvador Mazza",
    "coord": { "lon": -63.69128, "lat": -22.05011 }
  },
  {
    "name": "Presidencia Roque Sáenz Peña",
    "coord": { "lon": -60.438759, "lat": -26.785219 }
  },
  { "name": "Pozuelos", "coord": { "lon": -64.755722, "lat": -27.30801 } },
  { "name": "Pozo Herrera", "coord": { "lon": -62.345829, "lat": -28.3873 } },
  {
    "name": "Pozo del Tigre",
    "coord": { "lon": -60.323589, "lat": -24.89682 }
  },
  { "name": "Pozo del Molle", "coord": { "lon": -62.919842, "lat": -32.0186 } },
  { "name": "Pozo de Ávila", "coord": { "lon": -66.79055, "lat": -29.365721 } },
  { "name": "Porteña", "coord": { "lon": -62.066502, "lat": -31.01391 } },
  {
    "name": "Departamento de Pomán",
    "coord": { "lon": -66.416672, "lat": -28.25 }
  },
  { "name": "Pomán", "coord": { "lon": -66.22052, "lat": -28.39455 } },
  {
    "name": "Departamento de Pocito",
    "coord": { "lon": -68.699997, "lat": -31.799999 }
  },
  { "name": "Pocito", "coord": { "lon": -68.583328, "lat": -31.683331 } },
  { "name": "Plottier", "coord": { "lon": -68.23333, "lat": -38.966671 } },
  { "name": "Plaza Huincul", "coord": { "lon": -69.208633, "lat": -38.92598 } },
  { "name": "Pirovano", "coord": { "lon": -61.566669, "lat": -36.5 } },
  { "name": "Piquillín", "coord": { "lon": -63.757881, "lat": -31.30158 } },
  {
    "name": "Piquete Cabado",
    "coord": { "lon": -64.179169, "lat": -24.81922 }
  },
  { "name": "Pilcaniyeu", "coord": { "lon": -70.729141, "lat": -41.118809 } },
  { "name": "Pilar", "coord": { "lon": -63.879639, "lat": -31.6789 } },
  { "name": "Pigüé", "coord": { "lon": -62.403332, "lat": -37.605091 } },
  { "name": "Piedritas", "coord": { "lon": -62.983662, "lat": -34.768318 } },
  {
    "name": "Piedra Pintada",
    "coord": { "lon": -65.15094, "lat": -31.926451 }
  },
  {
    "name": "Piedra del Águila",
    "coord": { "lon": -70.074097, "lat": -40.048111 }
  },
  {
    "name": "Departamento de Picún Leufú",
    "coord": { "lon": -69.5, "lat": -39.5 }
  },
  { "name": "Picún Leufú", "coord": { "lon": -69.279663, "lat": -39.52351 } },
  {
    "name": "Pico Truncado",
    "coord": { "lon": -67.957314, "lat": -46.794899 }
  },
  { "name": "Pichi Leufú", "coord": { "lon": -70.849998, "lat": -41.133331 } },
  { "name": "Piamonte", "coord": { "lon": -61.98217, "lat": -32.143009 } },
  { "name": "Peyrano", "coord": { "lon": -60.801491, "lat": -33.537331 } },
  {
    "name": "Perito Moreno",
    "coord": { "lon": -70.929749, "lat": -46.589939 }
  },
  { "name": "Perito Moreno", "coord": { "lon": -71.409401, "lat": -41.11618 } },
  { "name": "Perico", "coord": { "lon": -65.114906, "lat": -24.382931 } },
  {
    "name": "Partido de Pergamino",
    "coord": { "lon": -60.583328, "lat": -33.75 }
  },
  { "name": "Pergamino", "coord": { "lon": -60.57357, "lat": -33.88995 } },
  { "name": "Pérez Millán", "coord": { "lon": -60.094158, "lat": -33.76936 } },
  { "name": "Pérez", "coord": { "lon": -60.76791, "lat": -32.998348 } },
  { "name": "Peralta", "coord": { "lon": -61.667568, "lat": -38.057919 } },
  {
    "name": "Partido de Pellegrini",
    "coord": { "lon": -63, "lat": -36.333328 }
  },
  {
    "name": "Departamento de Pellegrini",
    "coord": { "lon": -64.25, "lat": -26.16667 }
  },
  { "name": "Pellegrini", "coord": { "lon": -63.165501, "lat": -36.265839 } },
  {
    "name": "Partido de Pehuajó",
    "coord": { "lon": -61.75, "lat": -35.916672 }
  },
  { "name": "Pehuajó", "coord": { "lon": -61.896801, "lat": -35.810768 } },
  { "name": "Pedro Luro", "coord": { "lon": -62.68169, "lat": -39.502541 } },
  { "name": "Pedro E. Vivas", "coord": { "lon": -63.530842, "lat": -31.3706 } },
  { "name": "Pedregal", "coord": { "lon": -68.683327, "lat": -32.966671 } },
  { "name": "Pavón Arriba", "coord": { "lon": -60.823681, "lat": -33.311211 } },
  { "name": "Pavón", "coord": { "lon": -60.40517, "lat": -33.241718 } },
  { "name": "Patricios", "coord": { "lon": -60.715931, "lat": -35.439548 } },
  {
    "name": "Departamento de Paso de Indios",
    "coord": { "lon": -68.833328, "lat": -44 }
  },
  {
    "name": "Paso de Indios",
    "coord": { "lon": -69.046021, "lat": -43.862251 }
  },
  { "name": "Pasco", "coord": { "lon": -63.342319, "lat": -32.74733 } },
  { "name": "Pascanas", "coord": { "lon": -63.04084, "lat": -33.1255 } },
  { "name": "Parera", "coord": { "lon": -64.500893, "lat": -35.146 } },
  { "name": "Paraná", "coord": { "lon": -60.5238, "lat": -31.73197 } },
  {
    "name": "Paraje El Cerro",
    "coord": { "lon": -61.283329, "lat": -32.51667 }
  },
  {
    "name": "Pampa de los Guanacos",
    "coord": { "lon": -61.849998, "lat": -26.23333 }
  },
  {
    "name": "Pampa del Infierno",
    "coord": { "lon": -61.174358, "lat": -26.505171 }
  },
  { "name": "Palpalá", "coord": { "lon": -65.211632, "lat": -24.256479 } },
  { "name": "Palomitas", "coord": { "lon": -65.226982, "lat": -27.46703 } },
  { "name": "Palmitas", "coord": { "lon": -64.954582, "lat": -27.234591 } },
  { "name": "Palma Sola", "coord": { "lon": -64.298721, "lat": -23.96336 } },
  { "name": "Padilla", "coord": { "lon": -65.392159, "lat": -27.022659 } },
  {
    "name": "Departamento de Paclín",
    "coord": { "lon": -65.666672, "lat": -28.08333 }
  },
  { "name": "Pacará", "coord": { "lon": -65.133331, "lat": -26.9 } },
  { "name": "Oro Verde", "coord": { "lon": -60.51749, "lat": -31.825081 } },
  { "name": "Ordoqui", "coord": { "lon": -61.16153, "lat": -35.881329 } },
  { "name": "Ordóñez", "coord": { "lon": -62.86552, "lat": -32.840569 } },
  { "name": "Oncativo", "coord": { "lon": -63.682011, "lat": -31.91353 } },
  { "name": "Oliveros", "coord": { "lon": -60.85236, "lat": -32.575611 } },
  { "name": "Oliva", "coord": { "lon": -63.569778, "lat": -32.04158 } },
  { "name": "Olavarría", "coord": { "lon": -60.32254, "lat": -36.892719 } },
  { "name": "Olascoaga", "coord": { "lon": -60.611671, "lat": -35.236881 } },
  { "name": "Olaeta", "coord": { "lon": -63.907349, "lat": -33.045261 } },
  { "name": "Obispo Trejo", "coord": { "lon": -63.413479, "lat": -30.781281 } },
  { "name": "Obanta", "coord": { "lon": -65.300003, "lat": -26.866671 } },
  { "name": "Nuevo Torino", "coord": { "lon": -61.235401, "lat": -31.346451 } },
  {
    "name": "Partido de Nueve de Julio",
    "coord": { "lon": -61, "lat": -35.5 }
  },
  {
    "name": "Departamento de Nueve de Julio",
    "coord": { "lon": -68.416672, "lat": -31.66667 }
  },
  {
    "name": "Nueve de Julio",
    "coord": { "lon": -60.883129, "lat": -35.44437 }
  },
  {
    "name": "Nueve de Julio",
    "coord": { "lon": -68.390228, "lat": -31.66914 }
  },
  { "name": "Nueva Lehmann", "coord": { "lon": -61.515652, "lat": -31.11702 } },
  { "name": "Noetinger", "coord": { "lon": -62.31126, "lat": -32.365971 } },
  { "name": "Ñirihuau", "coord": { "lon": -71.150002, "lat": -41.116669 } },
  { "name": "Ninte", "coord": { "lon": -63.817059, "lat": -30.93609 } },
  { "name": "Neuquén Province", "coord": { "lon": -70, "lat": -39 } },
  { "name": "Neuquén", "coord": { "lon": -68.059097, "lat": -38.951611 } },
  { "name": "Navarro", "coord": { "lon": -63.220119, "lat": -29.179609 } },
  { "name": "Naschel", "coord": { "lon": -65.375351, "lat": -32.916561 } },
  { "name": "Napenay", "coord": { "lon": -60.616669, "lat": -26.73333 } },
  { "name": "Mutquín", "coord": { "lon": -66.142532, "lat": -28.321039 } },
  { "name": "Morteros", "coord": { "lon": -61.998619, "lat": -30.711639 } },
  { "name": "Morrison", "coord": { "lon": -62.834549, "lat": -32.594799 } },
  { "name": "Monte Vera", "coord": { "lon": -60.676769, "lat": -31.516701 } },
  { "name": "Montes de Oca", "coord": { "lon": -61.76881, "lat": -32.566662 } },
  {
    "name": "Departamento de Monteros",
    "coord": { "lon": -65.583328, "lat": -27.16667 }
  },
  { "name": "Monteros", "coord": { "lon": -65.498322, "lat": -27.167419 } },
  {
    "name": "Monte Quemado",
    "coord": { "lon": -62.830189, "lat": -25.805651 }
  },
  { "name": "Monte Maíz", "coord": { "lon": -62.600849, "lat": -33.20462 } },
  { "name": "Monte Hermoso", "coord": { "lon": -61.29472, "lat": -38.982498 } },
  {
    "name": "Monte Hermoso",
    "coord": { "lon": -61.299999, "lat": -38.650002 }
  },
  { "name": "Monte Flores", "coord": { "lon": -60.68272, "lat": -33.1073 } },
  { "name": "Monte Cristo", "coord": { "lon": -63.94437, "lat": -31.343121 } },
  { "name": "Monte Buey", "coord": { "lon": -62.45668, "lat": -32.91642 } },
  { "name": "Monteagudo", "coord": { "lon": -65.276558, "lat": -27.51162 } },
  { "name": "Molinari", "coord": { "lon": -64.48333, "lat": -31.200001 } },
  { "name": "Mojón", "coord": { "lon": -64.916283, "lat": -27.22823 } },
  { "name": "Mixta", "coord": { "lon": -65.134956, "lat": -27.228991 } },
  { "name": "Miramar", "coord": { "lon": -62.678139, "lat": -30.918579 } },
  {
    "name": "Departamento de Minas",
    "coord": { "lon": -65.333328, "lat": -31 }
  },
  { "name": "Mina Clavero", "coord": { "lon": -65.006187, "lat": -31.721001 } },
  {
    "name": "Miguel Riglos",
    "coord": { "lon": -63.688419, "lat": -36.853981 }
  },
  { "name": "Miguel Cané", "coord": { "lon": -63.510872, "lat": -36.157009 } },
  { "name": "Merlo", "coord": { "lon": -65.013962, "lat": -32.34288 } },
  { "name": "Mendoza Province", "coord": { "lon": -68.5, "lat": -34.5 } },
  { "name": "Mendoza", "coord": { "lon": -68.827171, "lat": -32.890839 } },
  { "name": "Mendiolaza", "coord": { "lon": -64.300873, "lat": -31.26738 } },
  { "name": "Melincué", "coord": { "lon": -61.454578, "lat": -33.65847 } },
  { "name": "Medrano", "coord": { "lon": -68.6138, "lat": -33.179619 } },
  { "name": "Médano de Oro", "coord": { "lon": -68.449997, "lat": -31.6 } },
  { "name": "Mechita", "coord": { "lon": -60.408428, "lat": -35.07016 } },
  {
    "name": "Mayor Buratovich",
    "coord": { "lon": -62.616619, "lat": -39.258961 }
  },
  { "name": "Máximo Paz", "coord": { "lon": -60.958302, "lat": -33.484589 } },
  { "name": "Mattaldi", "coord": { "lon": -64.172546, "lat": -34.481941 } },
  { "name": "Matorrales", "coord": { "lon": -63.511181, "lat": -31.71509 } },
  { "name": "Marull", "coord": { "lon": -62.82576, "lat": -30.994711 } },
  { "name": "Mari Lauquen", "coord": { "lon": -62.976662, "lat": -36.130291 } },
  { "name": "María Teresa", "coord": { "lon": -61.914951, "lat": -34.011871 } },
  { "name": "María Susana", "coord": { "lon": -61.90292, "lat": -32.26561 } },
  { "name": "Mariano Unzué", "coord": { "lon": -61.01667, "lat": -36.133331 } },
  {
    "name": "Mariano Moreno",
    "coord": { "lon": -70.023666, "lat": -38.75029 }
  },
  { "name": "María Juana", "coord": { "lon": -61.751869, "lat": -31.676809 } },
  { "name": "Marcos Juárez", "coord": { "lon": -62.10672, "lat": -32.6978 } },
  {
    "name": "Marcelino Escalada",
    "coord": { "lon": -60.468689, "lat": -30.57918 }
  },
  { "name": "Maquinchao", "coord": { "lon": -68.73333, "lat": -41.25 } },
  {
    "name": "Manuel García Fernández",
    "coord": { "lon": -65.283333, "lat": -26.966669 }
  },
  { "name": "Manfredi", "coord": { "lon": -63.747211, "lat": -31.844339 } },
  {
    "name": "Manantiales Chicos",
    "coord": { "lon": -60.3032, "lat": -33.865021 }
  },
  { "name": "Manantial", "coord": { "lon": -65.282959, "lat": -26.847481 } },
  {
    "name": "Malvinas Argentinas",
    "coord": { "lon": -64.066673, "lat": -31.383329 }
  },
  { "name": "Malvinas", "coord": { "lon": -65.283333, "lat": -26.91667 } },
  { "name": "Mal Paso", "coord": { "lon": -64.312477, "lat": -27.7377 } },
  { "name": "Malargüe", "coord": { "lon": -69.584267, "lat": -35.47546 } },
  { "name": "Malagueño", "coord": { "lon": -64.358398, "lat": -31.46467 } },
  { "name": "Maizales", "coord": { "lon": -60.963322, "lat": -33.317322 } },
  { "name": "Mainque", "coord": { "lon": -67.300003, "lat": -39.066669 } },
  { "name": "Maimará", "coord": { "lon": -65.407967, "lat": -23.62392 } },
  { "name": "Maguire", "coord": { "lon": -60.299999, "lat": -33.950001 } },
  { "name": "Maggiolo", "coord": { "lon": -62.245258, "lat": -33.721661 } },
  { "name": "Magdalena", "coord": { "lon": -63.105701, "lat": -27.546949 } },
  { "name": "Madariaga", "coord": { "lon": -64.666672, "lat": -25.91667 } },
  { "name": "Maciel", "coord": { "lon": -60.88736, "lat": -32.455742 } },
  { "name": "Machagai", "coord": { "lon": -60.049561, "lat": -26.92614 } },
  { "name": "Macachín", "coord": { "lon": -63.6665, "lat": -37.135979 } },
  { "name": "Luzuriaga", "coord": { "lon": -68.816673, "lat": -32.950001 } },
  { "name": "Luro", "coord": { "lon": -62.133331, "lat": -36.633331 } },
  { "name": "Luque", "coord": { "lon": -63.343231, "lat": -31.647511 } },
  { "name": "Lunlunta", "coord": { "lon": -68.822617, "lat": -33.041229 } },
  {
    "name": "San Isidro de Lules",
    "coord": { "lon": -65.338692, "lat": -26.9277 }
  },
  { "name": "Luján", "coord": { "lon": -65.929604, "lat": -32.375702 } },
  { "name": "Lugones", "coord": { "lon": -63.339821, "lat": -28.33588 } },
  { "name": "Los Varela", "coord": { "lon": -65.865501, "lat": -27.954821 } },
  { "name": "Los Telares", "coord": { "lon": -63.448891, "lat": -28.984791 } },
  {
    "name": "Los Surgentes",
    "coord": { "lon": -62.021912, "lat": -32.984539 }
  },
  { "name": "Los Sauces", "coord": { "lon": -64.682137, "lat": -30.736629 } },
  { "name": "Los Ralos", "coord": { "lon": -64.999748, "lat": -26.88788 } },
  {
    "name": "Los Quirquinchos",
    "coord": { "lon": -61.709862, "lat": -33.375431 }
  },
  { "name": "Los Quebrachos", "coord": { "lon": -61.206879, "lat": -31.6031 } },
  {
    "name": "Los Quebrachitos",
    "coord": { "lon": -64.377022, "lat": -31.197861 }
  },
  { "name": "Los Puestos", "coord": { "lon": -64.973221, "lat": -27.267191 } },
  { "name": "Los Menucos", "coord": { "lon": -68.087181, "lat": -40.844021 } },
  { "name": "Los Juríes", "coord": { "lon": -62.10862, "lat": -28.465389 } },
  {
    "name": "Los Gutiérrez",
    "coord": { "lon": -65.133331, "lat": -26.799999 }
  },
  { "name": "Los Frentones", "coord": { "lon": -61.413681, "lat": -26.4077 } },
  { "name": "Los Cóndores", "coord": { "lon": -64.277519, "lat": -32.319839 } },
  { "name": "Los Cisnes", "coord": { "lon": -63.471981, "lat": -33.399929 } },
  {
    "name": "Los Chañaritos",
    "coord": { "lon": -63.332329, "lat": -31.40238 }
  },
  { "name": "Los Cardos", "coord": { "lon": -61.63102, "lat": -32.32206 } },
  {
    "name": "Los Boulevares",
    "coord": { "lon": -64.221832, "lat": -31.341869 }
  },
  { "name": "Los Antiguos", "coord": { "lon": -71.630859, "lat": -46.549721 } },
  { "name": "Los Altos", "coord": { "lon": -65.499458, "lat": -28.04845 } },
  { "name": "Lonquimay", "coord": { "lon": -63.62429, "lat": -36.465462 } },
  { "name": "Londres", "coord": { "lon": -67.133492, "lat": -27.71439 } },
  {
    "name": "Departamento de Loncopué",
    "coord": { "lon": -70.333328, "lat": -38.083328 }
  },
  { "name": "Loncopué", "coord": { "lon": -70.616089, "lat": -38.072842 } },
  { "name": "Lomitas", "coord": { "lon": -63.872429, "lat": -27.88883 } },
  {
    "name": "Loma del Medio",
    "coord": { "lon": -64.739677, "lat": -27.37627 }
  },
  { "name": "Loma Alta", "coord": { "lon": -61.178028, "lat": -31.960569 } },
  { "name": "Partido de Lincoln", "coord": { "lon": -61.75, "lat": -35 } },
  { "name": "Lincoln", "coord": { "lon": -61.530201, "lat": -34.866489 } },
  { "name": "Lin Calel", "coord": { "lon": -60.245029, "lat": -38.7062 } },
  {
    "name": "Libertador General San Martín",
    "coord": { "lon": -64.787567, "lat": -23.80644 }
  },
  { "name": "Leones", "coord": { "lon": -62.29678, "lat": -32.661739 } },
  {
    "name": "Departamento de Leales",
    "coord": { "lon": -65.083328, "lat": -27.200001 }
  },
  { "name": "Leales", "coord": { "lon": -65.308891, "lat": -27.195169 } },
  { "name": "La Violeta", "coord": { "lon": -60.170341, "lat": -33.73251 } },
  { "name": "Lavalle", "coord": { "lon": -65.108513, "lat": -28.19635 } },
  { "name": "La Toma", "coord": { "lon": -65.623848, "lat": -33.052582 } },
  { "name": "La Tigra", "coord": { "lon": -60.587189, "lat": -27.109961 } },
  { "name": "La Tablada", "coord": { "lon": -65.305542, "lat": -31.455669 } },
  {
    "name": "Las Vertientes",
    "coord": { "lon": -64.579079, "lat": -33.283371 }
  },
  { "name": "Las Varillas", "coord": { "lon": -62.71946, "lat": -31.87208 } },
  { "name": "Las Varas", "coord": { "lon": -62.61655, "lat": -31.802601 } },
  { "name": "Las Talas", "coord": { "lon": -64.215881, "lat": -30.75589 } },
  { "name": "Las Rosas", "coord": { "lon": -61.58041, "lat": -32.476608 } },
  { "name": "Las Pulgas", "coord": { "lon": -69.618858, "lat": -45.460979 } },
  { "name": "Las Petacas", "coord": { "lon": -62.108761, "lat": -31.82292 } },
  { "name": "Las Perdices", "coord": { "lon": -63.706341, "lat": -32.697941 } },
  { "name": "Las Parejas", "coord": { "lon": -61.516369, "lat": -32.68478 } },
  { "name": "Las Paredes", "coord": { "lon": -68.461563, "lat": -34.56411 } },
  { "name": "Las Ovejas", "coord": { "lon": -70.749908, "lat": -36.988811 } },
  { "name": "Las Lomitas", "coord": { "lon": -60.593029, "lat": -24.709551 } },
  { "name": "Las Lajitas", "coord": { "lon": -64.25, "lat": -24.683331 } },
  { "name": "Las Lajas", "coord": { "lon": -70.367439, "lat": -38.52322 } },
  { "name": "Las Junturas", "coord": { "lon": -63.450161, "lat": -31.831249 } },
  { "name": "Las Higueras", "coord": { "lon": -64.289001, "lat": -33.092312 } },
  { "name": "Las Heras", "coord": { "lon": -68.935928, "lat": -46.541859 } },
  { "name": "Las Heras", "coord": { "lon": -68.828369, "lat": -32.85273 } },
  { "name": "Las Heras", "coord": { "lon": -63.916672, "lat": -31.566669 } },
  { "name": "Las Delicias", "coord": { "lon": -60.4263, "lat": -31.93499 } },
  { "name": "Las Chacras", "coord": { "lon": -65.776459, "lat": -32.56237 } },
  { "name": "Las Catitas", "coord": { "lon": -68.033333, "lat": -33.299999 } },
  { "name": "Las Cañas", "coord": { "lon": -60.274849, "lat": -31.01363 } },
  { "name": "Las Cañas", "coord": { "lon": -65.215118, "lat": -28.203899 } },
  { "name": "Las Calles", "coord": { "lon": -64.971413, "lat": -31.82386 } },
  { "name": "Las Breñas", "coord": { "lon": -61.081612, "lat": -27.089661 } },
  { "name": "Las Acequias", "coord": { "lon": -63.976101, "lat": -33.281551 } },
  { "name": "Lartigau", "coord": { "lon": -61.565498, "lat": -38.447201 } },
  { "name": "Larrechea", "coord": { "lon": -61.0466, "lat": -31.93548 } },
  { "name": "Larrea", "coord": { "lon": -60.366798, "lat": -35.051472 } },
  { "name": "La Rioja Province", "coord": { "lon": -67.5, "lat": -30 } },
  { "name": "La Rioja", "coord": { "lon": -66.85067, "lat": -29.411051 } },
  { "name": "Larguía", "coord": { "lon": -61.218151, "lat": -32.551479 } },
  { "name": "La Reducción", "coord": { "lon": -65.350533, "lat": -26.95529 } },
  { "name": "La Quiaca", "coord": { "lon": -65.592987, "lat": -22.10236 } },
  { "name": "La Puntilla", "coord": { "lon": -68.849052, "lat": -32.96225 } },
  { "name": "La Puntilla", "coord": { "lon": -67.508774, "lat": -28.12044 } },
  {
    "name": "La Puerta de San José",
    "coord": { "lon": -67.01667, "lat": -27.549999 }
  },
  { "name": "Partido de Laprida", "coord": { "lon": -60.75, "lat": -37.5 } },
  { "name": "Laprida", "coord": { "lon": -60.79969, "lat": -37.544151 } },
  { "name": "La Playosa", "coord": { "lon": -63.03088, "lat": -32.100021 } },
  { "name": "Laplacette", "coord": { "lon": -61.155811, "lat": -34.72187 } },
  { "name": "La Paz", "coord": { "lon": -67.549561, "lat": -33.460911 } },
  { "name": "La Para", "coord": { "lon": -63.001068, "lat": -30.894159 } },
  { "name": "La Pampa Province", "coord": { "lon": -66, "lat": -37 } },
  { "name": "La Niña", "coord": { "lon": -61.206959, "lat": -35.40715 } },
  { "name": "La Nélida", "coord": { "lon": -66.383331, "lat": -33.26667 } },
  { "name": "La Mendieta", "coord": { "lon": -64.963768, "lat": -24.311871 } },
  { "name": "La Maruja", "coord": { "lon": -64.939972, "lat": -35.673599 } },
  { "name": "Lamarque", "coord": { "lon": -65.70208, "lat": -39.423038 } },
  { "name": "La Limpia", "coord": { "lon": -60.591019, "lat": -35.076679 } },
  { "name": "La Invencible", "coord": { "lon": -60.387081, "lat": -34.27034 } },
  { "name": "Laguna Yema", "coord": { "lon": -61.244659, "lat": -24.25391 } },
  { "name": "Laguna Paiva", "coord": { "lon": -60.658939, "lat": -31.303909 } },
  { "name": "Laguna Larga", "coord": { "lon": -63.801041, "lat": -31.77652 } },